Mobile,Route,Community,Stop,Address,Longitude,Latitude,Date,Day,Frequency,Start,End,Timetable
Norfolk,CEN120,Lingwood,CHAPEL RD / SCHOOL,"CHAPEL RD / SCHOOL, Lingwood",1.4827387853257377,52.62010286759314,2020-01-30,Thursday,1,16:40,17:00,
Norfolk,CEN120,Lingwood,POST OFFICE CLOSE,"POST OFFICE CLOSE, Lingwood",1.4876501634348867,52.62276443417473,2020-01-30,Thursday,1,17:05,17:40,
Norfolk,CEN120,Thorpe st andrew,POUND LANE SAINSBURYS,"POUND LANE SAINSBURYS, Thorpe st andrew",1.3604387763933483,52.630771325762,2020-01-30,Thursday,1,18:00,18:30,
Norfolk,CEN121,Mulbarton,CATERMERE/HARE CLOSE,"CATERMERE/HARE CLOSE, Mulbarton",1.2307051128381903,52.55378198965727,2020-01-30,Thursday,1,17:05,17:30,
Norfolk,CEN121,Mulbarton,BROMEDALE AVE,"BROMEDALE AVE, Mulbarton",1.2344895872431212,52.553678553955216,2020-01-30,Thursday,1,17:35,18:30,
Norfolk,CEN128,East harling,QUIDENHAM ROAD,"QUIDENHAM ROAD, East harling",0.9389547538348124,52.44129569600158,2020-01-30,Thursday,1,10:05,10:40,
Norfolk,CEN128,East harling,PARK COURT 1,"PARK COURT 1, East harling",0.9282315536301972,52.43804555345715,2020-01-30,Thursday,1,10:45,11:00,
Norfolk,CEN128,East harling,PARK COURT 2,"PARK COURT 2, East harling",0.9267678056125332,52.4374972578396,2020-01-30,Thursday,1,11:05,11:20,
Norfolk,CEN128,East harling,HAMBLING PIECE,"HAMBLING PIECE, East harling",0.9373030077060158,52.434609821933215,2020-01-30,Thursday,1,11:30,11:45,
Norfolk,CEN128,East harling,BREWSTERS Opp. No.38,"BREWSTERS Opp. No.38, East harling",0.9388094036467702,52.434914109228394,2020-01-30,Thursday,1,11:50,12:10,
Norfolk,CEN128,East harling,HIGH KERRIDGES,"HIGH KERRIDGES, East harling",0.9368195974774345,52.436411492359085,2020-01-30,Thursday,1,12:15,12:30,
Norfolk,CEN128,Bridgham,THE STREET-CHERRY CROFT LAY-BY,"THE STREET-CHERRY CROFT LAY-BY, Bridgham",0.8819631752414194,52.436413146872596,2020-01-30,Thursday,1,12:40,12:55,
Norfolk,CEN128,Bridgham,THE STREET-PEAR TREE COTTAGE,"THE STREET-PEAR TREE COTTAGE, Bridgham",0.8893657646532794,52.43643022376479,2020-01-30,Thursday,1,13:00,13:15,
Norfolk,CEN128,East harling,MARKET PLACE,"MARKET PLACE, East harling",0.9321208866916953,52.4394419852252,2020-01-30,Thursday,1,14:35,15:05,
Norfolk,CEN128,East harling,HARLING ROAD STATION,"HARLING ROAD STATION, East harling",0.9099840319311471,52.45365881539742,2020-01-30,Thursday,1,16:00,16:25,
Norfolk,CEN129,Mattishall,RAYNERS WAY,"RAYNERS WAY, Mattishall",1.0182975814870692,52.65944231741935,2020-01-30,Thursday,1,09:50,10:00,
Norfolk,CEN129,Mattishall,ORCHARD ROAD,"ORCHARD ROAD, Mattishall",1.0208002412216208,52.66098827458151,2020-01-30,Thursday,1,10:05,10:25,
Norfolk,CEN129,Mattishall,DAFFODIL WAY,"DAFFODIL WAY, Mattishall",1.0243495546001113,52.66141028528408,2020-01-30,Thursday,1,10:30,10:55,
Norfolk,CEN129,Mattishall,WILLOW CLOSE,"WILLOW CLOSE, Mattishall",1.0235694670225155,52.659109967826375,2020-01-30,Thursday,1,11:00,11:15,
Norfolk,CEN129,Mattishall,LIME TREE CLOSE,"LIME TREE CLOSE, Mattishall",1.0206513739634742,52.65840203954976,2020-01-30,Thursday,1,11:42,11:57,
Norfolk,CEN129,Mattishall,CEDAR CLOSE No 3,"CEDAR CLOSE No 3, Mattishall",1.0273501251741377,52.658815518081994,2020-01-30,Thursday,1,12:00,12:07,
Norfolk,CEN129,Mattishall,CEDAR ROAD No 18,"CEDAR ROAD No 18, Mattishall",1.0282603708206925,52.65850446056516,2020-01-30,Thursday,1,12:08,12:15,
Norfolk,CEN129,Mattishall,PARKERS ROAD,"PARKERS ROAD, Mattishall",1.0321753958323934,52.66036478564946,2020-01-30,Thursday,1,12:20,12:35,
Norfolk,CEN129,Mattishall,ALL SAINTS WALK,"ALL SAINTS WALK, Mattishall",1.0351360487082693,52.660828525637804,2020-01-30,Thursday,1,12:40,12:55,
Norfolk,CEN129,Mattishall,BURGH LANE,"BURGH LANE, Mattishall",1.0367244955972,52.663045092990444,2020-01-30,Thursday,1,13:00,13:15,
Norfolk,CEN129,Mattishall,HUNTER AVENUE,"HUNTER AVENUE, Mattishall",1.034690547334172,52.65525516629016,2020-01-30,Thursday,1,14:40,14:50,
Norfolk,CEN129,Mattishall,SMITHSON DRIVE,"SMITHSON DRIVE, Mattishall",1.0363603055994999,52.655662018932894,2020-01-30,Thursday,1,14:55,15:05,
Norfolk,CEN129,East tuddenham,3 MATTISHALL ROAD,"3 MATTISHALL ROAD, East tuddenham",1.0690961866402746,52.659152760161064,2020-01-30,Thursday,1,15:10,15:25,
Norfolk,CEN129,Colton,EX POST OFFICE,"EX POST OFFICE, Colton",1.1165184957504548,52.64446892198653,2020-01-30,Thursday,1,16:15,16:35,
Norfolk,CEN140,Ormesby st margaret,ROYAL OAK PUBLIC HOUSE,"ROYAL OAK PUBLIC HOUSE, Ormesby st margaret",1.6894460688631487,52.67302354220864,2017-10-23,Monday,1,10:05,10:45,
Norfolk,CEN140,Ormesby st margaret,FIRS AVENUE,"FIRS AVENUE, Ormesby st margaret",1.6860739192643253,52.6776079972056,2017-10-23,Monday,1,10:50,11:05,
Norfolk,CEN140,Ormesby st margaret,BECK AVENUE,"BECK AVENUE, Ormesby st margaret",1.6871550309196965,52.680425671859915,2017-10-23,Monday,1,11:10,11:25,
Norfolk,CEN140,Hemsby,EASTERLEY WAY,"EASTERLEY WAY, Hemsby",1.6880933558365487,52.69260234644416,2017-10-23,Monday,1,11:30,11:45,
Norfolk,CEN140,Hemsby,LONG BEACH,"LONG BEACH, Hemsby",1.703683962042929,52.69978821852651,2017-10-23,Monday,1,12:00,12:20,
Norfolk,CEN140,Hemsby,ST MARY'S CLOSE,"ST MARY'S CLOSE, Hemsby",1.6888717480814033,52.697965960178806,2017-10-23,Monday,1,13:35,13:50,
Norfolk,CEN140,Newport,FAKES ROAD - Outside No.7,"FAKES ROAD - Outside No.7, Newport",1.710711002173832,52.68995272868929,2017-10-23,Monday,1,14:10,14:25,
Norfolk,CEN140,Scratby,BEACH ROAD,"BEACH ROAD, Scratby",1.7094746458393615,52.678523064607226,2017-10-23,Monday,1,14:35,14:50,
Norfolk,CEN140,Scratby,BEACH DRIVE,"BEACH DRIVE, Scratby",1.7122707098173235,52.68060316975512,2017-10-23,Monday,1,14:55,15:10,
Norfolk,CEN140,Scratby,CALIFORNIA AVENUE,"CALIFORNIA AVENUE, Scratby",1.7131627296865297,52.684658851169246,2017-10-23,Monday,1,15:15,15:30,
Norfolk,CEN140,Scratby,BEACH ROAD PAGES STORES,"BEACH ROAD PAGES STORES, Scratby",1.7148788810754334,52.67802977617971,2017-10-23,Monday,1,15:35,15:50,
Norfolk,CEN140,California,ROTTENSTONE LANE BUS STOP,"ROTTENSTONE LANE BUS STOP, California",1.718996684299135,52.67198185621883,2017-10-23,Monday,1,15:55,16:10,
Norfolk,CEN141,Carbrooke,CHURCH STREET,"CHURCH STREET, Carbrooke",0.8757207550879128,52.58189260892998,2017-10-23,Monday,1,11:10,11:20,
Norfolk,CEN141,Carbrooke,MILL LANE Nr Chapel,"MILL LANE Nr Chapel, Carbrooke",0.8783050956395633,52.580552775683636,2017-10-23,Monday,1,11:25,11:35,
Norfolk,CEN141,Griston,CHURCH ROAD/CARBROOKE RD,"CHURCH ROAD/CARBROOKE RD, Griston",0.8647563218963609,52.55797654770971,2017-10-23,Monday,1,12:45,13:00,
Norfolk,CEN1410,Old catton,IVES ROAD (Nr Community Centre),"IVES ROAD (Nr Community Centre), Old catton",1.290750633181059,52.660574272360165,2017-10-16,Monday,1,10:25,10:50,
Norfolk,CEN1410,Old catton,CATTON COURT,"CATTON COURT, Old catton",1.2971015055890447,52.66476856062736,2017-10-16,Monday,1,10:55,11:20,
Norfolk,CEN1410,Old catton,WOODLAND DRIVE (Nr No.12 - Opp No.5),"WOODLAND DRIVE (Nr No.12 - Opp No.5), Old catton",1.298287789798696,52.66578779303524,2017-10-16,Monday,1,11:25,11:40,
Norfolk,CEN1410,Old catton,TAYLORS LANE,"TAYLORS LANE, Old catton",1.294443244075911,52.66659634815105,2017-10-16,Monday,1,11:45,12:05,
Norfolk,CEN1410,Old catton,NORMAN DRIVE,"NORMAN DRIVE, Old catton",1.3005427850996791,52.66940341656928,2017-10-16,Monday,1,12:10,12:30,
Norfolk,CEN1410,Old catton,DESMOND DRIVE (Nr No.90),"DESMOND DRIVE (Nr No.90), Old catton",1.3084966951503332,52.66737366459407,2017-10-16,Monday,1,12:35,12:50,
Norfolk,CEN1410,Old catton,EDGEFIELDS CLOSE,"EDGEFIELDS CLOSE, Old catton",1.3049771465300637,52.670134131536756,2017-10-16,Monday,1,14:00,14:15,
Norfolk,CEN1410,Old catton,THE PADDOCKS (Nr Three Corner Drive),"THE PADDOCKS (Nr Three Corner Drive), Old catton",1.3047496859600798,52.667514287688626,2017-10-16,Monday,1,14:20,14:40,
Norfolk,CEN1410,Old catton,PIONEER ROAD (Nr No.11),"PIONEER ROAD (Nr No.11), Old catton",1.3153309544124736,52.6650239674566,2017-10-16,Monday,1,14:45,15:05,
Norfolk,CEN1410,Old catton,PROCTOR ROAD (Nr No. 129 lay-by),"PROCTOR ROAD (Nr No. 129 lay-by), Old catton",1.3110482951762887,52.6639476363595,2017-10-16,Monday,1,15:10,15:30,
Norfolk,CEN1410,Old catton,BURMA ROAD,"BURMA ROAD, Old catton",1.3054834250320342,52.66175574930602,2017-10-16,Monday,1,15:35,15:50,
Norfolk,CEN1410,Old catton,THE WARREN (Nr No.27 opp ally to Warren Close),"THE WARREN (Nr No.27 opp ally to Warren Close), Old catton",1.3040522746896916,52.658081251743724,2017-10-16,Monday,1,15:55,16:10,
Norfolk,CEN1410,Old catton,COLKETT DRIVE (Opp. No.1),"COLKETT DRIVE (Opp. No.1), Old catton",1.3003447357831073,52.65579231321738,2017-10-16,Monday,1,16:15,16:30,
Norfolk,CEN1411,Litcham,MANOR DRIVE/FRONT STREET,"MANOR DRIVE/FRONT STREET, Litcham",0.7899012044937099,52.723477596136995,2017-11-06,Monday,1,10:15,10:30,
Norfolk,CEN1411,Litcham,LITCHAM CLOSE,"LITCHAM CLOSE, Litcham",0.7819717428772395,52.729203452828386,2017-11-06,Monday,1,10:55,11:10,
Norfolk,CEN1411,Mileham,LITCHAM ROAD (NEAR No.46),"LITCHAM ROAD (NEAR No.46), Mileham",0.8266090986591829,52.735017556263976,2017-11-06,Monday,1,11:20,11:35,
Norfolk,CEN1411,Mileham,POST OFFICE,"POST OFFICE, Mileham",0.8341814999480537,52.73778630326995,2017-11-06,Monday,1,11:40,12:00,
Norfolk,CEN1411,Tittleshall,PEAK HALL ROAD (Opp. No.2),"PEAK HALL ROAD (Opp. No.2), Tittleshall",0.804943677399701,52.755217147990805,2017-11-06,Monday,1,13:45,13:55,
Norfolk,CEN1411,Tittleshall,BLENHEIM CRESCENT,"BLENHEIM CRESCENT, Tittleshall",0.7983445016513282,52.75331381971637,2017-11-06,Monday,1,14:00,14:15,
Norfolk,CEN1411,Weasenham,MASSINGHAM ROAD,"MASSINGHAM ROAD, Weasenham",0.7433151744121449,52.764410940835845,2017-11-06,Monday,1,14:50,15:10,
Norfolk,CEN1411,Weasenham,THE GREEN,"THE GREEN, Weasenham",0.7461817660433575,52.767087274867094,2017-11-06,Monday,1,15:15,15:35,
Norfolk,CEN1411,Rougham,CHURCH,"CHURCH, Rougham",0.7115831614786534,52.750699172609146,2017-11-06,Monday,1,15:45,16:05,
Norfolk,CEN1412,Necton,KETTS HILL,"KETTS HILL, Necton",0.7844988127827092,52.651933333756126,2017-10-16,Monday,1,10:35,10:50,
Norfolk,CEN1412,Necton,CHANTRY COURT,"CHANTRY COURT, Necton",0.7783798622918487,52.64847998954135,2017-10-16,Monday,1,10:55,11:15,
Norfolk,CEN1412,Necton,MINI MARKET,"MINI MARKET, Necton",0.7766298293367083,52.64862895023035,2017-10-16,Monday,1,11:20,11:35,
Norfolk,CEN1412,Necton,BRACKENWOOD,"BRACKENWOOD, Necton",0.7813819018860243,52.650351931988496,2017-10-16,Monday,1,11:40,11:55,
Norfolk,CEN1412,Necton,MASONS DRIVE/BENGEYS DRIVE,"MASONS DRIVE/BENGEYS DRIVE, Necton",0.7727073474708668,52.65042946679588,2017-10-16,Monday,1,12:00,12:15,
Norfolk,CEN1412,Necton,ELIZABETH DRIVE,"ELIZABETH DRIVE, Necton",0.7739226586436406,52.645104324835046,2017-10-16,Monday,1,12:20,12:40,
Norfolk,CEN1412,Necton,JUBILEE WAY,"JUBILEE WAY, Necton",0.7746858782719821,52.64618354861797,2017-10-16,Monday,1,12:45,12:55,
Norfolk,CEN142,Keswick,VILLAGE HALL,"VILLAGE HALL, Keswick",1.2564040602900732,52.59551892363551,2017-10-16,Monday,1,09:35,09:45,
Norfolk,CEN142,Keswick,KESWICK HALL,"KESWICK HALL, Keswick",1.2563681159365787,52.59025855434104,2017-10-16,Monday,1,09:50,10:10,
Norfolk,CEN142,Ashwellthorpe,THE SMITHY,"THE SMITHY, Ashwellthorpe",1.1808318664401998,52.53236183222763,2017-10-16,Monday,1,10:25,10:35,
Norfolk,CEN142,Ashwellthorpe,KNYVETT GREEN,"KNYVETT GREEN, Ashwellthorpe",1.1604664734640509,52.533816226631295,2017-10-16,Monday,1,10:40,10:55,
Norfolk,CEN142,Ashwellthorpe,GREENWOOD CLOSE,"GREENWOOD CLOSE, Ashwellthorpe",1.1527383695344935,52.533815658567626,2017-10-16,Monday,1,11:25,11:40,
Norfolk,CEN142,Ashwellthorpe,NEW ROAD - Outside KENWYN,"NEW ROAD - Outside KENWYN, Ashwellthorpe",1.144749045019971,52.533461787970445,2017-10-16,Monday,1,11:45,12:00,
Norfolk,CEN142,Ashwellthorpe,THE BRIDGE,"THE BRIDGE, Ashwellthorpe",1.1891302795973255,52.53270492737973,2017-10-16,Monday,1,12:15,12:35,
Norfolk,CEN142,Tacolneston,DOVEDALE ROAD,"DOVEDALE ROAD, Tacolneston",1.1578746419678851,52.50983651781449,2017-10-16,Monday,1,14:00,14:15,
Norfolk,CEN142,Tacolneston,WEST WAY,"WEST WAY, Tacolneston",1.1537512443246725,52.50618724350585,2017-10-16,Monday,1,14:20,14:40,
Norfolk,CEN142,Tacolneston,WARREN'S WAY,"WARREN'S WAY, Tacolneston",1.1528121682388086,52.50233603536461,2017-10-16,Monday,1,14:45,14:55,
Norfolk,CEN142,Tacolneston,DOVEDALE ROAD - SCHOOL STOP,"DOVEDALE ROAD - SCHOOL STOP, Tacolneston",1.1564427106195847,52.51042336717787,2017-10-16,Monday,1,15:00,15:50,
Norfolk,CEN142,Wreningham,STEVENS LANE,"STEVENS LANE, Wreningham",1.1970202831259982,52.53655703204354,2017-10-16,Monday,1,16:00,16:15,
Norfolk,CEN142,Wreningham,VILLAGE HALL,"VILLAGE HALL, Wreningham",1.1822621818812236,52.54071443747317,2017-10-16,Monday,1,16:25,16:50,
Norfolk,CEN143,Bedingham,BEDDINGHAM GREEN,"BEDDINGHAM GREEN, Bedingham",1.3695266402096333,52.483738533060645,2020-01-30,Thursday,1,10:35,10:50,
Norfolk,CEN143,Bedingham,GREEN LANE Rose Cottage,"GREEN LANE Rose Cottage, Bedingham",1.3643214820581722,52.46747249809491,2020-01-30,Thursday,1,10:55,11:10,
Norfolk,CEN143,Woodton,THE CLOSE - TRIPLE PLEA ROAD,"THE CLOSE - TRIPLE PLEA ROAD, Woodton",1.37379840671188,52.49488634511276,2020-01-30,Thursday,1,11:20,11:35,
Norfolk,CEN143,Woodton,SUCKLING PLACE,"SUCKLING PLACE, Woodton",1.3738986446565973,52.49580988183946,2020-01-30,Thursday,1,11:40,11:55,
Norfolk,CEN143,Woodton,KINGS HEAD,"KINGS HEAD, Woodton",1.3770588965568549,52.49551276517501,2020-01-30,Thursday,1,12:00,12:30,
Norfolk,CEN143,Thwaite,THWAITE VILLAGE SIGN,"THWAITE VILLAGE SIGN, Thwaite",1.4351557065186362,52.501825459607716,2020-01-30,Thursday,1,13:55,14:10,
Norfolk,CEN143,Mundham,HILL FARM,"HILL FARM, Mundham",1.4350677335343667,52.519582737260514,2020-01-30,Thursday,1,14:20,14:35,
Norfolk,CEN143,Mundham,UPTON PYNE (THE COMMON),"UPTON PYNE (THE COMMON), Mundham",1.436089881359462,52.533799960839914,2020-01-30,Thursday,1,14:50,15:05,
Norfolk,CEN143,Seething,MILL ROAD PILLAR BOX,"MILL ROAD PILLAR BOX, Seething",1.4228961147279804,52.533319208544974,2020-01-30,Thursday,1,15:10,15:25,
Norfolk,CEN143,Seething,POST OFFICE,"POST OFFICE, Seething",1.417567845582252,52.526817615264655,2020-01-30,Thursday,1,15:30,15:50,
Norfolk,CEN143,Kirstead,LODDON CORNER (Homstead Nursery),"LODDON CORNER (Homstead Nursery), Kirstead",1.3818329587844675,52.516224732955315,2020-01-30,Thursday,1,15:55,16:10,
Norfolk,CEN143,Kirstead,TOP OF GREEN MAN LANE,"TOP OF GREEN MAN LANE, Kirstead",1.381193629787093,52.52421183321399,2020-01-30,Thursday,1,16:15,16:30,
Norfolk,CEN144,Kirby bedon,STACEY BUNGALOWS,"STACEY BUNGALOWS, Kirby bedon",1.3638571784758926,52.598853410298,2020-01-30,Thursday,1,09:30,09:40,
Norfolk,CEN144,Bramerton,THE GREEN (WOODSEND) LAY-BY,"THE GREEN (WOODSEND) LAY-BY, Bramerton",1.3872861563012904,52.6034734781578,2020-01-30,Thursday,1,09:50,10:10,
Norfolk,CEN144,Bramerton,HILL HOUSE ROAD,"HILL HOUSE ROAD, Bramerton",1.3894238166396538,52.60150551441314,2020-01-30,Thursday,1,10:15,10:30,
Norfolk,CEN144,Bramerton,BULLOCKSHED LANE,"BULLOCKSHED LANE, Bramerton",1.3875338263229957,52.586404605159665,2020-01-30,Thursday,1,11:00,11:15,
Norfolk,CEN144,Bramerton,THE STREET Opp BARN HOUSE,"THE STREET Opp BARN HOUSE, Bramerton",1.3888585180296944,52.590746789098574,2020-01-30,Thursday,1,11:20,11:35,
Norfolk,CEN144,Bramerton,SURLINGHAM ROAD OUTSIDE TIMBERS,"SURLINGHAM ROAD OUTSIDE TIMBERS, Bramerton",1.386907255067489,52.59627107279842,2020-01-30,Thursday,1,11:40,12:05,
Norfolk,CEN144,Surlingham,THE CHURCH,"THE CHURCH, Surlingham",1.4035620116592828,52.60704475403432,2020-01-30,Thursday,1,12:10,12:20,
Norfolk,CEN144,Surlingham,PARISH ROOMS,"PARISH ROOMS, Surlingham",1.4138861426273925,52.606819273862406,2020-01-30,Thursday,1,12:25,12:45,
Norfolk,CEN144,Surlingham,FERRY CORNER,"FERRY CORNER, Surlingham",1.4139389369598558,52.614138977280966,2020-01-30,Thursday,1,13:55,14:10,
Norfolk,CEN144,Surlingham,THE GREEN Opp ORCHARD COTTAGE,"THE GREEN Opp ORCHARD COTTAGE, Surlingham",1.4202941831905045,52.60620248740473,2020-01-30,Thursday,1,14:25,14:50,
Norfolk,CEN144,Surlingham,GREENS CROFT,"GREENS CROFT, Surlingham",1.4180049426711698,52.604694665564374,2020-01-30,Thursday,1,14:55,15:10,
Norfolk,CEN144,Rockland st mary,BEE-ORCHID WAY,"BEE-ORCHID WAY, Rockland st mary",1.4260914097108632,52.59096051860134,2020-01-30,Thursday,1,15:15,15:25,
Norfolk,CEN144,Rockland st mary,ST MARGARETS WAY,"ST MARGARETS WAY, Rockland st mary",1.411663190230666,52.58545934039326,2020-01-30,Thursday,1,15:30,16:30,
Norfolk,CEN145,Stratton strawless,WOODLAND FARM DEVELOPMENT CAR PARK,"WOODLAND FARM DEVELOPMENT CAR PARK, Stratton strawless",1.2412479491075692,52.72731458044312,2017-10-23,Monday,1,11:00,11:15,
Norfolk,CEN145,Felthorpe,28 HOLT ROAD,"28 HOLT ROAD, Felthorpe",1.222434935226224,52.729329711060664,2017-10-23,Monday,1,11:20,11:35,
Norfolk,CEN145,Cawston,NORWICH ROAD (Opp No.7),"NORWICH ROAD (Opp No.7), Cawston",1.1644525538038688,52.76919543452493,2017-10-23,Monday,1,11:50,12:20,
Norfolk,CEN145,Cawston,MARKET PLACE,"MARKET PLACE, Cawston",1.1642986814227114,52.7705485483986,2017-10-23,Monday,1,12:25,13:25,
Norfolk,CEN145,Marsham,LE-NEVE ROAD,"LE-NEVE ROAD, Marsham",1.2533363663114843,52.76786817294557,2017-10-23,Monday,1,14:45,15:00,
Norfolk,CEN145,Marsham,WATHEN WAY,"WATHEN WAY, Marsham",1.2501679804472823,52.76892641029756,2017-10-23,Monday,1,15:05,15:20,
Norfolk,CEN145,Hevingham,MALT AND HOPS EX PUB,"MALT AND HOPS EX PUB, Hevingham",1.234567897285174,52.74772369619811,2017-10-23,Monday,1,15:30,15:45,
Norfolk,CEN145,Hevingham,NELSON WAY,"NELSON WAY, Hevingham",1.2513281786456005,52.74272323030602,2017-10-23,Monday,1,15:55,16:20,
Norfolk,CEN145,Hevingham,HALL CORNER,"HALL CORNER, Hevingham",1.2537453269176708,52.74314253391646,2017-10-23,Monday,1,16:25,16:35,
Norfolk,CEN145,Hevingham,POUND ROAD,"POUND ROAD, Hevingham",1.2593139804792304,52.74329526779477,2017-10-23,Monday,1,16:40,17:05,
Norfolk,CEN147,Old costessey,BARLEY COURT,"BARLEY COURT, Old costessey",1.2162269370339684,52.646613555554175,2017-10-30,Monday,1,10:20,10:55,
Norfolk,CEN147,Easton,PARKERS CLOSE,"PARKERS CLOSE, Easton",1.1636366906050855,52.65159207226147,2017-10-30,Monday,1,10:30,11:00,
Norfolk,CEN147,Easton,MARLINGFORD ROAD,"MARLINGFORD ROAD, Easton",1.155934763731844,52.65285886413943,2017-10-30,Monday,1,11:05,11:20,
Norfolk,CEN147,Easton,MARLINGFORD WAY,"MARLINGFORD WAY, Easton",1.1582326510255014,52.65252778313458,2017-10-30,Monday,1,11:25,11:45,
Norfolk,CEN147,Easton,KENNEDY CLOSE,"KENNEDY CLOSE, Easton",1.1529995691510648,52.65317090039266,2017-10-30,Monday,1,11:50,12:10,
Norfolk,CEN147,Easton,ST PETERS DRIVE,"ST PETERS DRIVE, Easton",1.1540657525558726,52.65360116848469,2017-10-30,Monday,1,12:15,12:40,
Norfolk,CEN147,Ringland,THE SWAN,"THE SWAN, Ringland",1.1649867420176407,52.67947176947886,2017-10-30,Monday,1,13:55,14:10,
Norfolk,CEN147,Ringland,THE CHURCH,"THE CHURCH, Ringland",1.1561210896213905,52.68210963495741,2017-10-30,Monday,1,14:15,14:30,
Norfolk,CEN147,Weston longville,DIARY FARM COTTAGES,"DIARY FARM COTTAGES, Weston longville",1.118364774087098,52.70900167819936,2017-10-30,Monday,1,14:40,14:55,
Norfolk,CEN147,Weston longville,1 RECTORY ROAD,"1 RECTORY ROAD, Weston longville",1.1046364727564977,52.697509089858144,2017-10-30,Monday,1,15:00,15:15,
Norfolk,CEN147,"Weston longville, greengate","GREENGATE, RECTORY ROAD","GREENGATE, RECTORY ROAD, Weston longville, greengate",1.1130564542465216,52.697881652242614,2017-10-30,Monday,1,15:20,15:35,
Norfolk,CEN147,Weston longville,POST OFFICE LANE,"POST OFFICE LANE, Weston longville",1.1232528748360666,52.69804490754234,2017-10-30,Monday,1,15:40,16:30,
Norfolk,CEN148,Gt plumstead,OLD SCHOOL - VILLAGE HALL CAR PARK,"OLD SCHOOL - VILLAGE HALL CAR PARK, Gt plumstead",1.399138269486122,52.639928386537264,2017-11-06,Monday,1,10:40,11:40,
Norfolk,CEN148,Lt plumstead,MACMILLAN WAY OLD HOSPITAL,"MACMILLAN WAY OLD HOSPITAL, Lt plumstead",1.413632968906636,52.64587904516657,2017-11-06,Monday,1,12:10,13:00,
Norfolk,CEN148,Lt plumstead,VILLAGE HALL,"VILLAGE HALL, Lt plumstead",1.418479223717834,52.658708678803215,2017-11-06,Monday,1,13:10,14:00,
Norfolk,CEN148,Salhouse,FARMAN CLOSE - Outside no.2,"FARMAN CLOSE - Outside no.2, Salhouse",1.4111979866761684,52.67573763614805,2017-11-06,Monday,1,16:20,17:15,
Norfolk,CEN149,Frettenham,BUXTON ROAD BUNGALOWS,"BUXTON ROAD BUNGALOWS, Frettenham",1.3152635808433617,52.70591175873461,2017-10-30,Monday,1,10:50,11:10,
Norfolk,CEN149,Frettenham,WELL GREEN,"WELL GREEN, Frettenham",1.3267667811266206,52.70705520579488,2017-10-30,Monday,1,11:40,12:00,
Norfolk,CEN149,Hainford,VILLAGE HALL CAR PARK,"VILLAGE HALL CAR PARK, Hainford",1.30098146157404,52.71756185739534,2017-10-30,Monday,1,12:05,12:35,
Norfolk,CEN149,Hainford,CHEQUERS PUB CAR PARK,"CHEQUERS PUB CAR PARK, Hainford",1.2916545257885916,52.72665324064635,2017-10-30,Monday,1,12:40,13:10,
Norfolk,CEN149,Buxton,THE HEATH,"THE HEATH, Buxton",1.3126600473063765,52.74089843883668,2017-10-30,Monday,1,13:20,13:35,
Norfolk,CEN149,Buxton,VILLAGE HALL,"VILLAGE HALL, Buxton",1.3091214699371219,52.75500957122474,2017-10-30,Monday,1,14:45,16:00,
Norfolk,CEN149,Buxton,CHURCH CLOSE,"CHURCH CLOSE, Buxton",1.3046367032562096,52.75431629713006,2017-10-30,Monday,1,16:05,17:10,
Norfolk,CEN220,Thorpe end,PLUMSTEAD ROAD (Opp Shops on The Green),"PLUMSTEAD ROAD (Opp Shops on The Green), Thorpe end",1.3699212970618195,52.64989275891852,2020-01-30,Thursday,1,16:45,17:30,
Norfolk,CEN220,Thorpe end,BROADLAND DRIVE (Opp Barker Way),"BROADLAND DRIVE (Opp Barker Way), Thorpe end",1.3670943509711475,52.651592121734886,2020-01-30,Thursday,1,17:35,18:25,
Norfolk,CEN221,Strumpshaw,ST. PETERS CLOSE,"ST. PETERS CLOSE, Strumpshaw",1.4706307779744177,52.615008091785036,2020-01-30,Thursday,1,09:40,09:55,
Norfolk,CEN221,Lingwood,LINGWOOD NURSERY SCHOOL,"LINGWOOD NURSERY SCHOOL, Lingwood",1.4827563816364557,52.62013832702824,2020-01-30,Thursday,1,10:00,10:25,
Norfolk,CEN221,Lingwood,NEVES CLOSE,"NEVES CLOSE, Lingwood",1.4829804727289453,52.62481775959128,2020-01-30,Thursday,1,10:30,10:55,
Norfolk,CEN221,Lingwood,POST OFFICE CLOSE,"POST OFFICE CLOSE, Lingwood",1.4876537339922222,52.6228093003041,2020-01-30,Thursday,1,11:00,11:15,
Norfolk,CEN221,Lingwood,ST. PETERS ROAD,"ST. PETERS ROAD, Lingwood",1.4835584386553482,52.623163784435796,2020-01-30,Thursday,1,11:20,11:35,
Norfolk,CEN221,Lingwood,BRIAR CLOSE,"BRIAR CLOSE, Lingwood",1.4840987979394498,52.62066544917081,2020-01-30,Thursday,1,11:40,11:50,
Norfolk,CEN221,Lingwood,CHRISTINE AVENUE,"CHRISTINE AVENUE, Lingwood",1.4888221253889156,52.61762111634696,2020-01-30,Thursday,1,11:55,12:10,
Norfolk,CEN221,"Lingwood, the paddocks","THE PADDOCKS, CLARKSON ROAD LAY-BY","THE PADDOCKS, CLARKSON ROAD LAY-BY, Lingwood, the paddocks",1.487804838532797,52.620808110087864,2020-01-30,Thursday,1,12:15,12:40,
Norfolk,CEN221,Lingwood,ELM ROAD,"ELM ROAD, Lingwood",1.4943439619910774,52.62423090299621,2020-01-30,Thursday,1,13:55,14:15,
Norfolk,CEN221,Lingwood,MANOR GARDENS,"MANOR GARDENS, Lingwood",1.4932347654135025,52.62440756135885,2020-01-30,Thursday,1,14:20,14:35,
Norfolk,CEN221,Lingwood,HOMELEA CRESCENT,"HOMELEA CRESCENT, Lingwood",1.48702901288739,52.61922998840293,2020-01-30,Thursday,1,14:40,15:05,
Norfolk,CEN221,Lingwood,LINGWOOD FIRST & NURSERY SCHOOL,"LINGWOOD FIRST & NURSERY SCHOOL, Lingwood",1.4827563816364557,52.62013832702824,2020-01-30,Thursday,1,15:10,15:35,
Norfolk,CEN221,Lingwood,POST OFFICE,"POST OFFICE, Lingwood",1.491368629054304,52.62361717042729,2020-01-30,Thursday,1,15:40,16:30,
Norfolk,CEN222,Dussindale,TURNHAM GREEN,"TURNHAM GREEN, Dussindale",1.3657503963716162,52.638148361454064,2020-01-30,Thursday,1,17:05,17:45,
Norfolk,CEN222,Dussindale,SKIPPON WAY (Opp Joyce Way),"SKIPPON WAY (Opp Joyce Way), Dussindale",1.3670655493602657,52.64102500830874,2020-01-30,Thursday,1,17:50,18:25,
Norfolk,CEN223,Newton st faiths,NEWTON CLOSE,"NEWTON CLOSE, Newton st faiths",1.2823660633734901,52.70595561968039,2020-01-30,Thursday,1,10:55,11:15,
Norfolk,CEN223,Newton st faiths,FAIRHOLME ROAD,"FAIRHOLME ROAD, Newton st faiths",1.2900009465008713,52.706670145002924,2020-01-30,Thursday,1,11:20,11:45,
Norfolk,CEN223,Horsham st faiths,THE WARREN,"THE WARREN, Horsham st faiths",1.2809602854819766,52.69472543538235,2020-01-30,Thursday,1,11:50,12:05,
Norfolk,CEN223,Horsham st faiths,OLD NORWICH ROAD/SPIXWORTH ROAD,"OLD NORWICH ROAD/SPIXWORTH ROAD, Horsham st faiths",1.2800991601971055,52.68699669358092,2020-01-30,Thursday,1,12:10,12:25,
Norfolk,CEN223,Horsham st faiths,ST MARYS CLOSE,"ST MARYS CLOSE, Horsham st faiths",1.2850404270908433,52.691500495697014,2020-01-30,Thursday,1,12:30,13:15,
Norfolk,CEN223,Horsford,RECREATION GROUND,"RECREATION GROUND, Horsford",1.2422237473209559,52.69955156704449,2020-01-30,Thursday,1,14:45,15:30,
Norfolk,CEN223,Horsford,THE BRICKMAKERS,"THE BRICKMAKERS, Horsford",1.2400583327143722,52.7038917892651,2020-01-30,Thursday,1,15:50,16:10,
Norfolk,CEN223,Horsford,GORDON GODFREY WAY,"GORDON GODFREY WAY, Horsford",1.2393128507258206,52.7010252275392,2020-01-30,Thursday,1,16:15,16:35,
Norfolk,CEN223,Horsford,DOG LANE nr No9,"DOG LANE nr No9, Horsford",1.2448647316465016,52.694244943277525,2020-01-30,Thursday,1,16:40,17:10,
Norfolk,CEN228,Stoke holy cross,LONG LANE,"LONG LANE, Stoke holy cross",1.3015155893800958,52.56771875014946,2020-01-30,Thursday,1,09:35,09:55,
Norfolk,CEN228,Stoke holy cross,BANCROFT CLOSE,"BANCROFT CLOSE, Stoke holy cross",1.2973335368937442,52.56588372883852,2020-01-30,Thursday,1,10:00,10:15,
Norfolk,CEN228,Stoke holy cross,PAVILLION PLAYGROUP,"PAVILLION PLAYGROUP, Stoke holy cross",1.3008174651810178,52.56805302056009,2020-01-30,Thursday,1,10:20,10:45,
Norfolk,CEN228,Postwick,VILLAGE HALL,"VILLAGE HALL, Postwick",1.3932510625190893,52.61908717713761,2020-01-30,Thursday,1,11:05,12:00,
Norfolk,CEN228,Norwich,COUNTY HALL FORECOURT,"COUNTY HALL FORECOURT, Norwich",1.3066934404185075,52.6149089843621,2020-01-30,Thursday,1,12:10,14:10,
Norfolk,CEN228,Stoke holy cross,MILL GREEN,"MILL GREEN, Stoke holy cross",1.2939862017287003,52.56789269318657,2020-01-30,Thursday,1,14:25,14:45,
Norfolk,CEN228,Stoke holy cross,PAVILION off Long Lane,"PAVILION off Long Lane, Stoke holy cross",1.3008174651810178,52.56805302056009,2020-01-30,Thursday,1,14:50,15:50,
Norfolk,CEN228,Stoke holy cross,PETTINGALES,"PETTINGALES, Stoke holy cross",1.296861314460543,52.568244298954944,2020-01-30,Thursday,1,15:55,16:35,
Norfolk,CEN241,Swardeston,CAVELL CLOSE,"CAVELL CLOSE, Swardeston",1.2466221193293296,52.57389692692755,2017-10-17,Tuesday,1,09:35,09:55,
Norfolk,CEN241,Swardeston,HILLSIDE CLOSE,"HILLSIDE CLOSE, Swardeston",1.2491372157699066,52.57836073555071,2017-10-17,Tuesday,1,10:00,10:10,
Norfolk,CEN241,Swardeston,"THE COMMON - OUTSIDE ""Bramley Oak""","THE COMMON - OUTSIDE ""Bramley Oak"", Swardeston",1.2431284629581136,52.57955989664561,2017-10-17,Tuesday,1,10:15,10:25,
Norfolk,CEN241,East carlton,THE GROVE,"THE GROVE, East carlton",1.224482381689735,52.567910078046786,2017-10-17,Tuesday,1,10:35,11:05,
Norfolk,CEN241,East carlton,LAY-BY RECTORY ROAD,"LAY-BY RECTORY ROAD, East carlton",1.2120540467891738,52.571737762794235,2017-10-17,Tuesday,1,11:50,12:05,
Norfolk,CEN241,Hethel,THE CHURCH,"THE CHURCH, Hethel",1.201569771581367,52.55771303491885,2017-10-17,Tuesday,1,12:15,12:30,
Norfolk,CEN241,Bracon ash,VILLAGE HALL,"VILLAGE HALL, Bracon ash",1.2180138678738928,52.553354514582,2017-10-17,Tuesday,1,12:35,13:00,
Norfolk,CEN241,Swainsthorpe,THE CHURCH,"THE CHURCH, Swainsthorpe",1.2729795625814737,52.561118851780996,2017-10-17,Tuesday,1,14:20,14:40,
Norfolk,CEN241,Shotesham,THE GROVE,"THE GROVE, Shotesham",1.3217434235525425,52.53989169667998,2017-10-17,Tuesday,1,15:25,15:40,
Norfolk,CEN241,Shotesham,THE SCHOOL,"THE SCHOOL, Shotesham",1.3129200685037266,52.54318817326552,2017-10-17,Tuesday,1,15:45,16:00,
Norfolk,CEN241,Shotesham,THE STREET,"THE STREET, Shotesham",1.3102430277547639,52.54525080383798,2017-10-17,Tuesday,1,16:05,16:25,
Norfolk,CEN2410,Shipdham,EASTGATE,"EASTGATE, Shipdham",0.90921042194846,52.63410563494717,2017-10-17,Tuesday,1,10:00,10:15,
Norfolk,CEN2410,Shipdham,BLACKMOOR ROW,"BLACKMOOR ROW, Shipdham",0.9092607455379297,52.62506647030646,2017-10-17,Tuesday,1,10:20,10:35,
Norfolk,CEN2410,Shipdham,RICHARD HAGGARD CLOSE,"RICHARD HAGGARD CLOSE, Shipdham",0.898155746762922,52.627200404003716,2017-10-17,Tuesday,1,10:40,10:50,
Norfolk,CEN2410,Shipdham,POUND GREEN CLOSE,"POUND GREEN CLOSE, Shipdham",0.8976662021092131,52.62806671709334,2017-10-17,Tuesday,1,10:55,11:10,
Norfolk,CEN2410,Shipdham,OLD SCHOOL,"OLD SCHOOL, Shipdham",0.8948801922881421,52.6292949664593,2017-10-17,Tuesday,1,11:55,12:10,
Norfolk,CEN2410,Shipdham,PARK ESTATE,"PARK ESTATE, Shipdham",0.8848484353271623,52.62642830170443,2017-10-17,Tuesday,1,12:30,12:50,
Norfolk,CEN2410,Bradenham,CHURCH ROAD,"CHURCH ROAD, Bradenham",0.8497581826595476,52.63905882114545,2017-10-17,Tuesday,1,14:10,14:25,
Norfolk,CEN2410,Bradenham,SOUTHEND,"SOUTHEND, Bradenham",0.8322594693012644,52.63866036225923,2017-10-17,Tuesday,1,14:30,14:45,
Norfolk,CEN2410,Bradenham,HALE ROAD,"HALE ROAD, Bradenham",0.8378014502434039,52.6402362932789,2017-10-17,Tuesday,1,14:50,15:00,
Norfolk,CEN2410,Bradenham,NELSON CLOSE,"NELSON CLOSE, Bradenham",0.8414741516945292,52.64033705854829,2017-10-17,Tuesday,1,15:05,15:20,
Norfolk,CEN2410,Bradenham,MILL HILL,"MILL HILL, Bradenham",0.8398635259773166,52.64354116811326,2017-10-17,Tuesday,1,15:25,15:40,
Norfolk,CEN243,Bawdeswell,PARADISE ROAD,"PARADISE ROAD, Bawdeswell",1.0276041847530906,52.74520609064397,2017-10-24,Tuesday,1,10:45,11:00,
Norfolk,CEN243,Bawdeswell,VILLAGE HALL,"VILLAGE HALL, Bawdeswell",1.02291918860092,52.746458816612396,2017-10-24,Tuesday,1,11:05,11:35,
Norfolk,CEN243,Bawdeswell,CHAUCER CLOSE,"CHAUCER CLOSE, Bawdeswell",1.032251389549777,52.744053067313715,2017-10-24,Tuesday,1,11:40,11:55,
Norfolk,CEN243,Sparham,WELL CLOSE,"WELL CLOSE, Sparham",1.0609345680376483,52.73488006778572,2017-10-24,Tuesday,1,12:30,12:40,
Norfolk,CEN243,Sparham,LAY-BY OPPOSITE CHURCH,"LAY-BY OPPOSITE CHURCH, Sparham",1.065991410399379,52.734524501136995,2017-10-24,Tuesday,1,12:45,12:55,
Norfolk,CEN243,Sparham,SPARHAM HILL LAY-BY,"SPARHAM HILL LAY-BY, Sparham",1.0797113534401361,52.72949222680422,2017-10-24,Tuesday,1,13:00,13:15,
Norfolk,CEN243,Gt witchingham,ST FAITHS CHURCH,"ST FAITHS CHURCH, Gt witchingham",1.1062365226760864,52.72231564043538,2017-10-24,Tuesday,1,14:40,15:10,
Norfolk,CEN243,Gt witchingham,THE STREET,"THE STREET, Gt witchingham",1.1082052736787509,52.72104991125166,2017-10-24,Tuesday,1,15:15,15:30,
Norfolk,CEN243,Lenwade,WHEEL STOP CAFE LAY-BY,"WHEEL STOP CAFE LAY-BY, Lenwade",1.1147717408192805,52.720913428472855,2017-10-24,Tuesday,1,15:35,15:45,
Norfolk,CEN243,Attlebridge,STATION ROAD - COUNCIL HOUSES,"STATION ROAD - COUNCIL HOUSES, Attlebridge",1.1507223837405034,52.71151797980559,2017-10-24,Tuesday,1,15:55,16:10,
Norfolk,CEN244,Sporle,ELEPHANTS & CASTLES NURSERY,"ELEPHANTS & CASTLES NURSERY, Sporle",0.7299105874962044,52.67737631654955,2017-11-07,Tuesday,1,11:20,11:40,
Norfolk,CEN245,Snetterton,SOUTHEND,"SOUTHEND, Snetterton",0.9300439131737533,52.47508859708121,2017-10-31,Tuesday,1,10:05,10:25,
Norfolk,CEN245,Shropham,COUNCIL HOUSES WESTGATE,"COUNCIL HOUSES WESTGATE, Shropham",0.9217382453806946,52.50064586971267,2017-10-31,Tuesday,1,10:35,10:50,
Norfolk,CEN245,Gt hockham,CHESTNUT SQUARE,"CHESTNUT SQUARE, Gt hockham",0.8778456537231984,52.49668622310905,2017-10-31,Tuesday,1,11:00,11:20,
Norfolk,CEN245,Gt hockham,SCOTGATE CLOSE,"SCOTGATE CLOSE, Gt hockham",0.8767384330724185,52.49823299262347,2017-10-31,Tuesday,1,11:25,11:45,
Norfolk,CEN245,Stow bedon,BRECKLES GRANGE,"BRECKLES GRANGE, Stow bedon",0.8690133268114814,52.51084005743067,2017-10-31,Tuesday,1,12:00,12:15,
Norfolk,CEN245,Stow bedon,WAYSIDE FARM (Park in farmyard),"WAYSIDE FARM (Park in farmyard), Stow bedon",0.8613680787620249,52.53108865476586,2017-10-31,Tuesday,1,12:20,12:40,
Norfolk,CEN245,Merton,BROOM HILL FARM,"BROOM HILL FARM, Merton",0.8319321241663503,52.55418044807118,2017-10-31,Tuesday,1,12:50,13:05,
Norfolk,CEN245,Carbrooke,SALMOND ROAD,"SALMOND ROAD, Carbrooke",0.8615414995170836,52.57137289234981,2017-10-31,Tuesday,1,14:55,15:10,
Norfolk,CEN245,Carbrooke,LANCASTER WAY Opp   No. 55,"LANCASTER WAY Opp   No. 55, Carbrooke",0.8555442476526954,52.568801919764624,2017-10-31,Tuesday,1,15:15,16:15,
Norfolk,CEN246,Forncetts,RED HOUSE FARM,"RED HOUSE FARM, Forncetts",1.1965398972947348,52.5145264424208,2017-10-31,Tuesday,1,09:45,09:55,
Norfolk,CEN246,Forncetts,SPICERS LANE COUNCIL HOUSES,"SPICERS LANE COUNCIL HOUSES, Forncetts",1.18493040328737,52.50362460557008,2017-10-31,Tuesday,1,10:00,10:15,
Norfolk,CEN246,Forncetts,MILL ROAD COUNCIL HOUSES,"MILL ROAD COUNCIL HOUSES, Forncetts",1.1766467667880214,52.49156209801131,2017-10-31,Tuesday,1,10:40,10:50,
Norfolk,CEN246,Forncetts,CHURCH,"CHURCH, Forncetts",1.1849830466552123,52.49090608060721,2017-10-31,Tuesday,1,10:55,11:10,
Norfolk,CEN246,"Forncett end, the poplars","THE POPLARS, BENTLEY ROAD","THE POPLARS, BENTLEY ROAD, Forncett end, the poplars",1.1543681448767018,52.50060372543946,2017-10-31,Tuesday,1,11:40,11:50,
Norfolk,CEN246,Forncett end,ORCHARD CLOSE,"ORCHARD CLOSE, Forncett end",1.1556805690610068,52.49938153914942,2017-10-31,Tuesday,1,11:55,12:05,
Norfolk,CEN246,Forncett end,TABERNACLE LANE,"TABERNACLE LANE, Forncett end",1.1545221873776292,52.4972000192381,2017-10-31,Tuesday,1,12:10,12:20,
Norfolk,CEN246,Bunwell,BUNWELL STORES,"BUNWELL STORES, Bunwell",1.1184033000868605,52.50113516604275,2017-10-31,Tuesday,1,12:30,12:45,
Norfolk,CEN246,Bunwell,OLD CHAPEL,"OLD CHAPEL, Bunwell",1.1078867367968457,52.503930284558976,2017-10-31,Tuesday,1,12:50,13:05,
Norfolk,CEN246,Carleton rode,OPPOSITE CHURCH,"OPPOSITE CHURCH, Carleton rode",1.113079214198649,52.48919714055515,2017-10-31,Tuesday,1,14:15,14:25,
Norfolk,CEN246,Carleton rode,VILLAGE HALL (MILL ROAD),"VILLAGE HALL (MILL ROAD), Carleton rode",1.0970651490199217,52.49591324949189,2017-10-31,Tuesday,1,14:30,14:45,
Norfolk,CEN246,Carleton rode,BEVAN CLOSE,"BEVAN CLOSE, Carleton rode",1.1052043862009562,52.4949442816741,2017-10-31,Tuesday,1,14:50,15:05,
Norfolk,CEN246,Bunwell,VILLAGE HALL,"VILLAGE HALL, Bunwell",1.132468452094666,52.491275084488684,2017-10-31,Tuesday,1,15:15,15:40,
Norfolk,CEN246,Carleton rode,GREENWOODS CORNER (RODE LANE),"GREENWOODS CORNER (RODE LANE), Carleton rode",1.1063036690138193,52.47856513487274,2017-10-31,Tuesday,1,15:50,16:05,
Norfolk,CEN246,Spooner row,QUEEN STREET,"QUEEN STREET, Spooner row",1.0871777859758345,52.53247851642418,2017-10-31,Tuesday,1,16:15,16:25,
Norfolk,CEN247,Reedham,RIVERSIDE,"RIVERSIDE, Reedham",1.567856164980212,52.55934520950025,2017-10-24,Tuesday,1,09:55,10:15,
Norfolk,CEN247,Reedham,VIKING SOCIAL CLUB,"VIKING SOCIAL CLUB, Reedham",1.5701365765866049,52.56034673855274,2017-10-24,Tuesday,1,10:20,10:35,
Norfolk,CEN247,Reedham,STATION FORECOURT,"STATION FORECOURT, Reedham",1.5602535301380795,52.56405363391796,2017-10-24,Tuesday,1,10:40,10:50,
Norfolk,CEN247,Reedham,CHURCH ROAD,"CHURCH ROAD, Reedham",1.568796542639381,52.56637757154991,2017-10-24,Tuesday,1,10:55,11:05,
Norfolk,CEN247,Halvergate,CARR CLOSE,"CARR CLOSE, Halvergate",1.5781143013370085,52.60644567095692,2017-10-24,Tuesday,1,11:15,11:30,
Norfolk,CEN247,Halvergate,BAKERS ROAD,"BAKERS ROAD, Halvergate",1.574151681218866,52.60586387908813,2017-10-24,Tuesday,1,11:35,11:50,
Norfolk,CEN247,Halvergate,THE STREET,"THE STREET, Halvergate",1.5736807472223677,52.604798760772276,2017-10-24,Tuesday,1,11:55,12:05,
Norfolk,CEN247,Freethorpe,SUTTON CRESCENT`,"SUTTON CRESCENT`, Freethorpe",1.558166013774167,52.591477821764784,2017-10-24,Tuesday,1,12:10,12:25,
Norfolk,CEN247,Freethorpe,GREEN (GARAGE),"GREEN (GARAGE), Freethorpe",1.5564632970210215,52.59251842358812,2017-10-24,Tuesday,1,12:30,12:40,
Norfolk,CEN247,Freethorpe,COMMON (ST. MICHAELS),"COMMON (ST. MICHAELS), Freethorpe",1.5451905682802203,52.589366944646635,2017-10-24,Tuesday,1,12:45,13:00,
Norfolk,CEN247,Limpenhoe,LIMPENHOE VILLAGE HALL,"LIMPENHOE VILLAGE HALL, Limpenhoe",1.535016395891548,52.58076691470182,2017-10-24,Tuesday,1,13:10,13:25,
Norfolk,CEN247,Cantley,CHURCH ROAD,"CHURCH ROAD, Cantley",1.5122749810374365,52.58036506580067,2017-10-24,Tuesday,1,14:40,15:30,
Norfolk,CEN247,Cantley,SCHOOL LANE,"SCHOOL LANE, Cantley",1.5059414928513586,52.584996194579745,2017-10-24,Tuesday,1,15:35,15:50,
Norfolk,CEN247,"Beighton, council houses","COUNCIL HOUSES, HOPEWELL GARDENS","COUNCIL HOUSES, HOPEWELL GARDENS, Beighton, council houses",1.5155931357757428,52.61514678123997,2017-10-24,Tuesday,1,16:00,16:15,
Norfolk,CEN248,Kimberley,STATION LAYBY,"STATION LAYBY, Kimberley",1.0513675752022789,52.59107321826574,2017-10-17,Tuesday,1,09:45,09:55,
Norfolk,CEN248,Hardingham,POLICEMAN'S LOKE - HSECALL,"POLICEMAN'S LOKE - HSECALL, Hardingham",1.0166216346105883,52.59559736636204,2017-10-17,Tuesday,1,10:55,11:10,
Norfolk,CEN248,Hackford,CHURCH LANE,"CHURCH LANE, Hackford",1.0367768192937967,52.579748304847435,2017-10-17,Tuesday,1,11:20,11:35,
Norfolk,CEN248,Deopham,LOW COMMON,"LOW COMMON, Deopham",1.0250567898486902,52.57077647050031,2017-10-17,Tuesday,1,11:40,11:55,
Norfolk,CEN248,Deopham,COLDHAM GREEN,"COLDHAM GREEN, Deopham",1.020490032783471,52.561890886018666,2017-10-17,Tuesday,1,12:05,12:20,
Norfolk,CEN248,Morley,ROBERT ANDREW CLOSE,"ROBERT ANDREW CLOSE, Morley",1.0550609632796841,52.55672229245058,2017-10-17,Tuesday,1,13:40,13:55,
Norfolk,CEN248,Morley,CHARLTON DECOY,"CHARLTON DECOY, Morley",1.0426728320922374,52.54125827930467,2017-10-17,Tuesday,1,14:05,14:15,
Norfolk,CEN248,Morley,ASH TREE COTTAGE,"ASH TREE COTTAGE, Morley",1.0425283918510873,52.5402367531872,2017-10-17,Tuesday,1,14:17,14:30,
Norfolk,CEN248,"Morley, whipple trees","WHIPPLE TREES, HILL ROAD","WHIPPLE TREES, HILL ROAD, Morley, whipple trees",1.0532723612657198,52.536074740876735,2017-10-17,Tuesday,1,14:35,14:50,
Norfolk,CEN248,"Morley, south lodge","SOUTH LODGE, HILL ROAD","SOUTH LODGE, HILL ROAD, Morley, south lodge",1.0554609763622362,52.53594627025651,2017-10-17,Tuesday,1,14:55,15:05,
Norfolk,CEN248,Morley st peter,WYMONDHAM COLLEGE,"WYMONDHAM COLLEGE, Morley st peter",1.0573991737721764,52.54494352088094,2017-10-17,Tuesday,1,15:30,16:15,
Norfolk,CEN249,Neatishead,PIT CORNER,"PIT CORNER, Neatishead",1.4712369569399946,52.72614987547149,2017-11-07,Tuesday,1,11:45,12:25,
Norfolk,CEN249,Neatishead,THE STREET,"THE STREET, Neatishead",1.46603021621402,52.73595306641794,2017-11-07,Tuesday,1,12:35,12:45,
Norfolk,CEN249,Ashmanhaugh,COUNCIL HOUSES,"COUNCIL HOUSES, Ashmanhaugh",1.4267247590317167,52.73640399771624,2017-11-07,Tuesday,1,12:55,13:10,
Norfolk,CEN249,Rackheath,SIR EDWARD STRACEY ROAD,"SIR EDWARD STRACEY ROAD, Rackheath",1.3703726302373869,52.66958571850968,2017-11-07,Tuesday,1,14:35,14:55,
Norfolk,CEN249,Rackheath,RACKHEATH SCHOOL,"RACKHEATH SCHOOL, Rackheath",1.3782803014146092,52.663739097459796,2017-11-07,Tuesday,1,15:00,16:00,
Norfolk,CEN249,Rackheath,EVA ROAD,"EVA ROAD, Rackheath",1.3828113692198032,52.66532756732406,2017-11-07,Tuesday,1,16:05,16:20,
Norfolk,CEN249,Rackheath,VERA ROAD - NEAR NEWSAGENTS,"VERA ROAD - NEAR NEWSAGENTS, Rackheath",1.3812822128459512,52.66104513580413,2017-11-07,Tuesday,1,16:25,17:05,
Norfolk,CEN321,Brooke,CHURCHILL PLACE,"CHURCHILL PLACE, Brooke",1.3778025426818858,52.546488271689164,2020-01-30,Thursday,1,09:35,10:17,
Norfolk,CEN321,Brooke,OLD HALL GARDENS,"OLD HALL GARDENS, Brooke",1.3828598516923107,52.54606488798776,2020-01-30,Thursday,1,10:20,10:40,
Norfolk,CEN321,Brooke,BURGESS WAY,"BURGESS WAY, Brooke",1.3781041270917587,52.54522947508668,2020-01-30,Thursday,1,10:45,11:00,
Norfolk,CEN321,Brooke,ST PETERS ROAD,"ST PETERS ROAD, Brooke",1.3796263305875742,52.54603142734777,2020-01-30,Thursday,1,11:05,11:20,
Norfolk,CEN321,Brooke,THE MERE,"THE MERE, Brooke",1.3771644341757303,52.54279192874449,2020-01-30,Thursday,1,11:25,11:40,
Norfolk,CEN321,Brooke,BROOKE HOUSE,"BROOKE HOUSE, Brooke",1.3738602432740068,52.539720323342216,2020-01-30,Thursday,1,11:45,12:00,
Norfolk,CEN321,Brooke,ASTLEY COOPER PLACE,"ASTLEY COOPER PLACE, Brooke",1.3613885182074805,52.538276696896595,2020-01-30,Thursday,1,12:05,12:25,
Norfolk,CEN321,Brooke,VILLAGE HALL,"VILLAGE HALL, Brooke",1.3685919625742977,52.54296449123485,2020-01-30,Thursday,1,12:30,12:45,
Norfolk,CEN321,Brooke,HIGH GREEN,"HIGH GREEN, Brooke",1.363477819660745,52.539557404123244,2020-01-30,Thursday,1,13:55,14:20,
Norfolk,CEN321,Brooke,BRECON ROAD (OUTSIDE 26),"BRECON ROAD (OUTSIDE 26), Brooke",1.3637056257515558,52.54176346859117,2020-01-30,Thursday,1,14:25,14:55,
Norfolk,CEN321,Brooke,BROOKE SCHOOL,"BROOKE SCHOOL, Brooke",1.368154525466496,52.54110618033502,2020-01-30,Thursday,1,15:00,15:35,
Norfolk,CEN321,Alpington & yelverton,FORTUNE GREEN,"FORTUNE GREEN, Alpington & yelverton",1.3776815012821817,52.566026916709966,2020-01-30,Thursday,1,15:45,15:50,
Norfolk,CEN321,Alpington & yelverton,CHERRY WOOD,"CHERRY WOOD, Alpington & yelverton",1.3801672430579741,52.56629767941209,2020-01-30,Thursday,1,15:55,16:20,
Norfolk,CEN321,Alpington & yelverton,VILLAGE HALL,"VILLAGE HALL, Alpington & yelverton",1.3823135295390947,52.56848484696714,2020-01-30,Thursday,1,16:25,16:40,
Norfolk,CEN322,Spixworth,ROSETTA ROAD,"ROSETTA ROAD, Spixworth",1.3280514215695158,52.686980842489,2020-01-30,Thursday,1,10:55,11:25,
Norfolk,CEN322,Spixworth,CHRISTINE RD/SYDNEY RD JUNCTION,"CHRISTINE RD/SYDNEY RD JUNCTION, Spixworth",1.3224500708316262,52.68611283496837,2020-01-30,Thursday,1,12:15,12:25,
Norfolk,CEN322,Spixworth,ST PETERS WAY,"ST PETERS WAY, Spixworth",1.3222106203248436,52.68744164683445,2020-01-30,Thursday,1,12:30,12:50,
Norfolk,CEN322,Spixworth,LONGE ARMS,"LONGE ARMS, Spixworth",1.31742852690498,52.688007414245845,2020-01-30,Thursday,1,14:00,14:30,
Norfolk,CEN322,Spixworth,CHESTNUT AVENUE,"CHESTNUT AVENUE, Spixworth",1.3229559199284364,52.693158800711416,2020-01-30,Thursday,1,14:35,14:55,
Norfolk,CEN322,Spixworth,INFANT SCHOOL,"INFANT SCHOOL, Spixworth",1.3193016430478943,52.69045520887738,2020-01-30,Thursday,1,15:00,15:35,
Norfolk,CEN322,Spixworth,BRAMBLES CLOSE,"BRAMBLES CLOSE, Spixworth",1.3167317094764666,52.68291844130268,2020-01-30,Thursday,1,15:40,15:55,
Norfolk,CEN322,Spixworth,REDWINGS GARDENS,"REDWINGS GARDENS, Spixworth",1.3255566546565993,52.68531511824013,2020-01-30,Thursday,1,16:00,16:15,
Norfolk,CEN323,Ditchingham,AGNES HOOD TERRACE,"AGNES HOOD TERRACE, Ditchingham",1.4411309510276924,52.46871443007658,2020-01-30,Thursday,1,09:50,10:15,
Norfolk,CEN323,Ditchingham,VILLAGE HALL,"VILLAGE HALL, Ditchingham",1.4467300668946206,52.46856023206178,2020-01-30,Thursday,1,10:30,11:00,
Norfolk,CEN323,Ditchingham,WAVENEY ROAD,"WAVENEY ROAD, Ditchingham",1.4503528137745425,52.47175543249196,2020-01-30,Thursday,1,11:05,11:25,
Norfolk,CEN323,Ditchingham,RIDER HAGGARD WAY(Opp. TURNER ROAD),"RIDER HAGGARD WAY(Opp. TURNER ROAD), Ditchingham",1.447084632976928,52.47064557375761,2020-01-30,Thursday,1,11:30,11:55,
Norfolk,CEN323,Ditchingham,ALL HALLOWS HOSPITAL,"ALL HALLOWS HOSPITAL, Ditchingham",1.4460263275236789,52.46615228171626,2020-01-30,Thursday,1,12:00,12:15,
Norfolk,CEN323,"Broome, broome sign","BROOME SIGN, 9 YARMOUTH ROAD","BROOME SIGN, 9 YARMOUTH ROAD, Broome, broome sign",1.4494149255421755,52.46635921455361,2020-01-30,Thursday,1,12:20,12:35,
Norfolk,CEN323,Broome,BROOME VILLAGE HALL,"BROOME VILLAGE HALL, Broome",1.4591586373920489,52.47173182981904,2020-01-30,Thursday,1,13:45,14:00,
Norfolk,CEN323,Broome,YARMOUTH ROAD (OUTSIDE No.88),"YARMOUTH ROAD (OUTSIDE No.88), Broome",1.4558411047360176,52.4686808698437,2020-01-30,Thursday,1,14:05,14:20,
Norfolk,CEN323,Kirby cane,YARMOUTH ROAD (Nr 21/23),"YARMOUTH ROAD (Nr 21/23), Kirby cane",1.4913478965037763,52.482046169356096,2020-01-30,Thursday,1,14:30,14:50,
Norfolk,CEN323,Kriby cane,CRISP ROAD,"CRISP ROAD, Kriby cane",1.4903122060869194,52.48050273501346,2020-01-30,Thursday,1,14:55,15:15,
Norfolk,CEN323,Ditchingham,ALL HALLOWS CONVENT,"ALL HALLOWS CONVENT, Ditchingham",1.4367151496983341,52.47875469346075,2020-01-30,Thursday,1,15:50,16:25,
Norfolk,CEN324,New costessey,LORD NELSON DRIVE (opp play area),"LORD NELSON DRIVE (opp play area), New costessey",1.1995913198272874,52.646803536669275,2017-10-18,Wednesday,1,16:50,17:20,
Norfolk,CEN324,"Costessey, fairway","FAIRWAY, QUEEN'S HILLS (Opp 32/34)","FAIRWAY, QUEEN'S HILLS (Opp 32/34), Costessey, fairway",1.181144123338673,52.66419053841982,2017-10-18,Wednesday,1,17:35,18:15,
Norfolk,CEN325,Cringleford,ROUND HOUSE PARK - THE WILLOWS CTRE,"ROUND HOUSE PARK - THE WILLOWS CTRE, Cringleford",1.2360886299873464,52.60642807195576,2017-10-25,Wednesday,1,16:50,17:20,
Norfolk,CEN325,Bowthorpe,PEVERALL ROAD (VILLAGE HALL),"PEVERALL ROAD (VILLAGE HALL), Bowthorpe",1.2266466207291498,52.638721375749974,2017-10-25,Wednesday,1,18:05,18:20,
Norfolk,CEN341,Stockton,LABURNUM COTTAGE,"LABURNUM COTTAGE, Stockton",1.511699511934063,52.48822498305462,2017-11-08,Wednesday,1,09:45,10:00,
Norfolk,CEN341,Gillingham,THE STREET,"THE STREET, Gillingham",1.549564315340774,52.470093924186635,2017-11-08,Wednesday,1,10:30,10:45,
Norfolk,CEN341,Geldeston,WEST END,"WEST END, Geldeston",1.5118372603936285,52.47516986433387,2017-11-08,Wednesday,1,10:55,11:10,
Norfolk,CEN341,Geldeston,KELLS WAY,"KELLS WAY, Geldeston",1.5133955358130289,52.47346855073453,2017-11-08,Wednesday,1,11:15,11:25,
Norfolk,CEN341,Geldeston,WHERRY INN PUBLIC HOUSE,"WHERRY INN PUBLIC HOUSE, Geldeston",1.5163692643774465,52.47252561201192,2017-11-08,Wednesday,1,11:30,11:55,
Norfolk,CEN341,Burgh st peter,OLD SCHOOL,"OLD SCHOOL, Burgh st peter",1.6299396898566925,52.48405838615807,2017-11-08,Wednesday,1,12:10,12:25,
Norfolk,CEN341,Aldeby,WHITE COTTAGE,"WHITE COTTAGE, Aldeby",1.6232895332184785,52.48202278912107,2017-11-08,Wednesday,1,12:30,12:45,
Norfolk,CEN341,Aldeby,VILLAGE CENTRE,"VILLAGE CENTRE, Aldeby",1.6061423930137773,52.48402248008752,2017-11-08,Wednesday,1,12:50,13:05,
Norfolk,CEN341,Maypole green,MAYPOLE GREEN,"MAYPOLE GREEN, Maypole green",1.561105920355665,52.50391719950524,2017-11-08,Wednesday,1,14:20,14:35,
Norfolk,CEN341,Haddiscoe,RECTORY ROAD - THE ELMS,"RECTORY ROAD - THE ELMS, Haddiscoe",1.5964789426233577,52.51236247533749,2017-11-08,Wednesday,1,14:45,15:00,
Norfolk,CEN341,Norton subcourse,CHAPEL,"CHAPEL, Norton subcourse",1.5560762581260563,52.53178094134772,2017-11-08,Wednesday,1,16:10,16:20,
Norfolk,CEN341,Thurlton,LINKS WAY,"LINKS WAY, Thurlton",1.557802090472008,52.52832007248697,2017-11-08,Wednesday,1,15:10,15:40,
Norfolk,CEN341,Thurlton,POST OFFICE STORES,"POST OFFICE STORES, Thurlton",1.5564875647932443,52.529025224657,2017-11-08,Wednesday,1,15:45,16:05,
Norfolk,CEN3410,Bradwell,CURLEW WAY Opp Raven Close,"CURLEW WAY Opp Raven Close, Bradwell",1.7072678835742174,52.584703725503516,2017-10-18,Wednesday,1,10:05,10:20,
Norfolk,CEN3410,Bradwell,WREN DRIVE Opp Siskin Close,"WREN DRIVE Opp Siskin Close, Bradwell",1.7035658700985916,52.581959331371586,2017-10-18,Wednesday,1,10:25,10:40,
Norfolk,CEN3410,Bradwell,BLUE SKY RECEPTION,"BLUE SKY RECEPTION, Bradwell",1.692902794216266,52.58615157122543,2017-10-18,Wednesday,1,10:45,11:00,
Norfolk,CEN3410,Bradwell,MILL LANE COMMUNITY CTRE,"MILL LANE COMMUNITY CTRE, Bradwell",1.6989701064975942,52.586123877517714,2017-10-18,Wednesday,1,11:05,12:30,
Norfolk,CEN3410,Bradwell,WILLOW AVENUE (Opp Cherry Close),"WILLOW AVENUE (Opp Cherry Close), Bradwell",1.6981269455115635,52.57944905122826,2017-10-18,Wednesday,1,13:45,14:00,
Norfolk,CEN3410,Bradwell,LORDS LANE,"LORDS LANE, Bradwell",1.6951682831921915,52.57570071487668,2017-10-18,Wednesday,1,14:05,14:20,
Norfolk,CEN3410,Bradwell,HOMEFIELD AVENUE (Outside No.10),"HOMEFIELD AVENUE (Outside No.10), Bradwell",1.6997752725916442,52.57658209249856,2017-10-18,Wednesday,1,14:25,14:35,
Norfolk,CEN3410,Gorleston,POTTERS FIELD,"POTTERS FIELD, Gorleston",1.713637330963395,52.56329382618337,2017-10-18,Wednesday,1,14:45,15:10,
Norfolk,CEN3411,Hales,PRESTON LANE,"PRESTON LANE, Hales",1.5077680186387636,52.52265565161785,2017-10-18,Wednesday,1,10:55,11:05,
Norfolk,CEN3411,Hales,MILLSIDE,"MILLSIDE, Hales",1.5089063858584173,52.521398621587664,2017-10-18,Wednesday,1,11:10,11:20,
Norfolk,CEN3411,St olaves,PRIORY CLOSE off Herringhfleet Road,"PRIORY CLOSE off Herringhfleet Road, St olaves",1.6259001318647985,52.53644200873922,2017-10-18,Wednesday,1,11:35,11:45,
Norfolk,CEN3411,Fritton,NEW ROAD - NEAR PLAYGROUND,"NEW ROAD - NEAR PLAYGROUND, Fritton",1.6374468103189788,52.543175180059634,2017-10-18,Wednesday,1,11:50,12:05,
Norfolk,CEN3411,Hopton,LOWESTOFT RD-OPPOSITE WHITE HART,"LOWESTOFT RD-OPPOSITE WHITE HART, Hopton",1.7216040456198143,52.53903574246524,2017-10-18,Wednesday,1,12:25,12:50,
Norfolk,CEN3411,"Hopton, old church road","OLD CHURCH ROAD, LAY BY","OLD CHURCH ROAD, LAY BY, Hopton, old church road",1.7280374100249536,52.537834588730995,2017-10-18,Wednesday,1,12:55,13:10,
Norfolk,CEN3411,Hopton,ROGERS CLOSE,"ROGERS CLOSE, Hopton",1.7234577613653173,52.54245843350246,2017-10-18,Wednesday,1,13:15,13:35,
Norfolk,CEN3411,Belton,AMHURST GARDENS,"AMHURST GARDENS, Belton",1.6599776952601364,52.56711662937482,2017-10-18,Wednesday,1,14:55,15:05,
Norfolk,CEN3411,Belton,SCHOOL/CHIDRENS CTRE,"SCHOOL/CHIDRENS CTRE, Belton",1.6646901685627615,52.56662887903781,2017-10-18,Wednesday,1,15:10,16:00,
Norfolk,CEN3411,Belton,ALDERSLEY,"ALDERSLEY, Belton",1.662197802160757,52.564178550518896,2017-10-18,Wednesday,1,16:05,16:20,
Norfolk,CEN3411,Belton,RAILWAY TAVERN,"RAILWAY TAVERN, Belton",1.6575681391009265,52.56477158084289,2017-10-18,Wednesday,1,16:25,16:35,
Norfolk,CEN3411,Belton,OPP DASHWOOD CLOSE,"OPP DASHWOOD CLOSE, Belton",1.654416019948976,52.56928547762022,2017-10-18,Wednesday,1,16:40,16:50,
Norfolk,CEN3411,Belton,ST ROBERTS WAY,"ST ROBERTS WAY, Belton",1.6669187978984674,52.569276227631995,2017-10-18,Wednesday,1,16:55,17:10,
Norfolk,CEN3412,Horstead,PATRICIA AVENUE,"PATRICIA AVENUE, Horstead",1.3526199272986776,52.72306382392376,2017-10-18,Wednesday,1,10:15,10:30,
Norfolk,CEN3412,Horstead,HAVERGATE RESIDENTIAL HOME,"HAVERGATE RESIDENTIAL HOME, Horstead",1.3530792683197312,52.72364441814223,2017-10-18,Wednesday,1,10:35,11:00,
Norfolk,CEN3412,Horstead,RECRUITING SERGEANT,"RECRUITING SERGEANT, Horstead",1.3521482476458024,52.72695353044122,2017-10-18,Wednesday,1,11:05,11:25,
Norfolk,CEN3412,Horstead,THE CHURCH,"THE CHURCH, Horstead",1.3507435106360242,52.728917959064475,2017-10-18,Wednesday,1,11:30,11:50,
Norfolk,CEN3412,Belaugh,HILL PIECE,"HILL PIECE, Belaugh",1.389074927453468,52.71638721525826,2017-10-18,Wednesday,1,12:00,12:15,
Norfolk,CEN3412,Tunstead,FLETCHER CLOSE,"FLETCHER CLOSE, Tunstead",1.4061480614656208,52.7395067230681,2017-10-18,Wednesday,1,12:25,12:40,
Norfolk,CEN3412,Tunstead,GRANARY WAY,"GRANARY WAY, Tunstead",1.4012012393423887,52.74505422248142,2017-10-18,Wednesday,1,12:45,12:55,
Norfolk,CEN3412,Tunstead,MANOR CLOSE,"MANOR CLOSE, Tunstead",1.4019774065108963,52.748926327467785,2017-10-18,Wednesday,1,13:00,13:15,
Norfolk,CEN3412,Coltishall,LING WAY,"LING WAY, Coltishall",1.360060249185582,52.73620892892662,2017-10-18,Wednesday,1,14:30,14:50,
Norfolk,CEN3412,Coltishall,RECTORY ROAD SPORTS HALL,"RECTORY ROAD SPORTS HALL, Coltishall",1.3629913439927046,52.7325192130481,2017-10-18,Wednesday,1,14:55,15:30,
Norfolk,CEN3412,Coltishall,16 KINGS ROAD,"16 KINGS ROAD, Coltishall",1.3667183262650304,52.72916655668165,2017-10-18,Wednesday,1,15:35,15:45,
Norfolk,CEN3412,Coltishall,CHURCH CLOSE,"CHURCH CLOSE, Coltishall",1.3596927197316986,52.72719848891029,2017-10-18,Wednesday,1,15:50,16:00,
Norfolk,CEN3412,Great hautbois,THE COMMON,"THE COMMON, Great hautbois",1.348578124268934,52.738350780642925,2017-10-18,Wednesday,1,16:05,16:20,
Norfolk,CEN344,Wicklewood,HILLSIDE,"HILLSIDE, Wicklewood",1.0608750421062128,52.582778628856865,2017-10-18,Wednesday,1,09:50,10:05,
Norfolk,CEN344,Wicklewood,PRIMROSE FARM,"PRIMROSE FARM, Wicklewood",1.0609642513838438,52.57262283178664,2017-10-18,Wednesday,1,10:10,10:20,
Norfolk,CEN344,Wicklewood,VILLAGE HALL,"VILLAGE HALL, Wicklewood",1.0624965329459113,52.57935517169889,2017-10-18,Wednesday,1,10:25,10:40,
Norfolk,CEN344,Kimberley,THE GREEN,"THE GREEN, Kimberley",1.055602766738243,52.5963329398759,2017-10-18,Wednesday,1,11:10,11:20,
Norfolk,CEN344,Brandon parva,HARRISONS,"HARRISONS, Brandon parva",1.0621517212990834,52.62858454275166,2017-10-18,Wednesday,1,12:55,13:10,
Norfolk,CEN344,Barnham broom,THE BELL PUB,"THE BELL PUB, Barnham broom",1.0705911721677999,52.62415704873639,2017-10-18,Wednesday,1,14:25,14:40,
Norfolk,CEN344,Barnham broom,HILLSIDE,"HILLSIDE, Barnham broom",1.0679418779610437,52.62452252539599,2017-10-18,Wednesday,1,14:45,15:00,
Norfolk,CEN344,Barnham broom,PLAYING FIELD,"PLAYING FIELD, Barnham broom",1.0821598022627483,52.62411717988667,2017-10-18,Wednesday,1,15:45,16:00,
Norfolk,CEN346,Little melton,SCHOOL LANE - No.s 93/95,"SCHOOL LANE - No.s 93/95, Little melton",1.1982076857013064,52.61934749801774,2017-11-01,Wednesday,1,09:35,09:55,
Norfolk,CEN346,Little melton,POST OFFICE,"POST OFFICE, Little melton",1.196846793469009,52.61750460168438,2017-11-01,Wednesday,1,10:00,10:15,
Norfolk,CEN346,Little melton,BRAYMEADOW LANE,"BRAYMEADOW LANE, Little melton",1.1952880083402797,52.61618866266991,2017-11-01,Wednesday,1,10:20,10:40,
Norfolk,CEN346,Little melton,CROSSWAYS,"CROSSWAYS, Little melton",1.19006326948806,52.61505252084072,2017-11-01,Wednesday,1,10:45,11:00,
Norfolk,CEN346,Little melton,RINGWOOD CLOSE,"RINGWOOD CLOSE, Little melton",1.1847339275519846,52.617354514931,2017-11-01,Wednesday,1,11:30,11:45,
Norfolk,CEN346,Barford,PARK AVE,"PARK AVE, Barford",1.1235033682551057,52.62589328452304,2017-11-01,Wednesday,1,11:55,12:15,
Norfolk,CEN346,Barford,CLARKES CLOSE,"CLARKES CLOSE, Barford",1.1238752418430713,52.62654898454828,2017-11-01,Wednesday,1,12:20,12:35,
Norfolk,CEN346,Marlingford,BARFORD ROAD COUNCIL HOUSES,"BARFORD ROAD COUNCIL HOUSES, Marlingford",1.1407548203040676,52.63585120981506,2017-11-01,Wednesday,1,13:50,14:05,
Norfolk,CEN346,Marlingford,MILL ROAD,"MILL ROAD, Marlingford",1.147921802512073,52.63787322937708,2017-11-01,Wednesday,1,14:10,14:25,
Norfolk,CEN346,Bawburgh,CHURCH STREET CHURCH COTTAGE,"CHURCH STREET CHURCH COTTAGE, Bawburgh",1.1808854720861888,52.632333371016266,2017-11-01,Wednesday,1,14:35,14:50,
Norfolk,CEN346,Bawburgh,STOCKS HILL,"STOCKS HILL, Bawburgh",1.1855616018392314,52.62976136476242,2017-11-01,Wednesday,1,16:00,16:20,
Norfolk,CEN347,Saxlingham,KENSINGTON CLOSE,"KENSINGTON CLOSE, Saxlingham",1.2869265288129093,52.531735772409874,2017-10-25,Wednesday,1,09:45,10:00,
Norfolk,CEN347,Saxlingham,STEWARD CLOSE,"STEWARD CLOSE, Saxlingham",1.2846506817751482,52.52752690811029,2017-10-25,Wednesday,1,10:05,10:25,
Norfolk,CEN347,Saxlingham,WAR MEMORIAL,"WAR MEMORIAL, Saxlingham",1.2855936092146192,52.52613363578874,2017-10-25,Wednesday,1,10:30,10:45,
Norfolk,CEN347,Saxlingham,SAXLINGHAM HALL,"SAXLINGHAM HALL, Saxlingham",1.3081722772678999,52.521654640171704,2017-10-25,Wednesday,1,10:50,11:20,
Norfolk,CEN347,Saxlingham,SAXLINGHAM GREEN,"SAXLINGHAM GREEN, Saxlingham",1.2978374937738855,52.521277807548664,2017-10-25,Wednesday,1,11:30,11:40,
Norfolk,CEN347,Hapton,SCHOOL,"SCHOOL, Hapton",1.2069467311137747,52.522806660707865,2017-10-25,Wednesday,1,12:00,12:15,
Norfolk,CEN347,Hapton,HILLSIDE FARM DUNTHORNE'S CORNER,"HILLSIDE FARM DUNTHORNE'S CORNER, Hapton",1.202693855502423,52.523731366677886,2017-10-25,Wednesday,1,12:20,12:30,
Norfolk,CEN347,Flordon,GREENWAYS CLOSE,"GREENWAYS CLOSE, Flordon",1.231258913146289,52.52799970870439,2017-10-25,Wednesday,1,13:40,13:55,
Norfolk,CEN347,Newton flotman,JOY AVENUE,"JOY AVENUE, Newton flotman",1.258046939348326,52.535476008479044,2017-10-25,Wednesday,1,14:05,14:20,
Norfolk,CEN347,Newton flotman,SCHOOL ROAD,"SCHOOL ROAD, Newton flotman",1.2596063774994255,52.53900358724834,2017-10-25,Wednesday,1,14:45,15:25,
Norfolk,CEN347,Newton flotman,GROVE DALE,"GROVE DALE, Newton flotman",1.2550543380373524,52.54067591126213,2017-10-25,Wednesday,1,15:30,15:50,
Norfolk,CEN347,Newton flotman,FLORDON ROAD - LIMEBANK,"FLORDON ROAD - LIMEBANK, Newton flotman",1.2606889571100104,52.537291893268254,2017-10-25,Wednesday,1,15:55,16:25,
Norfolk,CEN348,Tharston,THE STREET - WILLOW FARM LODGE,"THE STREET - WILLOW FARM LODGE, Tharston",1.2188621862507938,52.50428848641179,2017-11-08,Wednesday,1,10:45,11:00,
Norfolk,CEN348,Tharston,HIGHFIELDS COUNCIL HOUSES,"HIGHFIELDS COUNCIL HOUSES, Tharston",1.2164544662826957,52.49876888342154,2017-11-08,Wednesday,1,11:05,11:15,
Norfolk,CEN348,Wacton,METHODIST CHURCH,"METHODIST CHURCH, Wacton",1.2087341147650548,52.47836496434897,2017-11-08,Wednesday,1,11:25,11:35,
Norfolk,CEN348,Wacton,HALL ROAD,"HALL ROAD, Wacton",1.2045602360887813,52.47586101743002,2017-11-08,Wednesday,1,11:40,11:50,
Norfolk,CEN348,Aslacton,OPPOSITE SCHOOL,"OPPOSITE SCHOOL, Aslacton",1.177149361327259,52.47524299872885,2017-11-08,Wednesday,1,11:55,12:10,
Norfolk,CEN348,Great moulton,WOODROW LANE COUNCIL HOUSES,"WOODROW LANE COUNCIL HOUSES, Great moulton",1.1799030460484379,52.46400772544769,2017-11-08,Wednesday,1,12:15,12:30,
Norfolk,CEN348,Great moulton,HEATHER WAY,"HEATHER WAY, Great moulton",1.188408119591932,52.4641293203619,2017-11-08,Wednesday,1,12:35,12:55,
Norfolk,CEN348,Aslacton,SHEVAL CLOSE,"SHEVAL CLOSE, Aslacton",1.1753951408410719,52.45886760772874,2017-11-08,Wednesday,1,13:00,13:15,
Norfolk,CEN348,Tibenham,EX POST OFFICE,"EX POST OFFICE, Tibenham",1.1445321190766224,52.463362301117996,2017-11-08,Wednesday,1,13:25,13:40,
Norfolk,CEN348,Winfarthing,COUNCIL HOUSES HALL ROAD,"COUNCIL HOUSES HALL ROAD, Winfarthing",1.1027351168353858,52.43749529713407,2017-11-08,Wednesday,1,14:55,15:05,
Norfolk,CEN348,Banham,APPLE CLOSE,"APPLE CLOSE, Banham",1.0378217813982906,52.45156602930805,2017-11-08,Wednesday,1,15:20,16:00,
Norfolk,CEN348,Banham,THE GREEN,"THE GREEN, Banham",1.0362030075592075,52.45264187561307,2017-11-08,Wednesday,1,16:05,16:35,
Norfolk,CEN348,Banham,MILL ROAD,"MILL ROAD, Banham",1.0405550834108657,52.45342033043595,2017-11-08,Wednesday,1,16:40,17:10,
Norfolk,CEN420,Mattishall,CHURCH PLAIN,"CHURCH PLAIN, Mattishall",1.0347701422861795,52.657897127957206,2017-10-12,Thursday,1,17:00,17:40,
Norfolk,CEN421,Little plumstead,ASTLEY ROAD,"ASTLEY ROAD, Little plumstead",1.4155800858414727,52.64714500705903,2020-01-30,Thursday,1,17:00,17:15,
Norfolk,CEN421,Little plumstead,MACMILLAN WAY OLD HOSPITAL,"MACMILLAN WAY OLD HOSPITAL, Little plumstead",1.413632968906636,52.64587904516657,2020-01-30,Thursday,1,17:20,18:20,
Norfolk,CEN422,Old costessey,ST EDMUNDS CLOSE,"ST EDMUNDS CLOSE, Old costessey",1.2192375878530493,52.66403331150486,2017-10-12,Thursday,1,09:45,10:00,
Norfolk,CEN422,Old costessey,WEST END,"WEST END, Old costessey",1.1971454820610081,52.664137273346064,2017-10-12,Thursday,1,10:05,10:20,
Norfolk,CEN422,Old costessey,TOWER HILL,"TOWER HILL, Old costessey",1.1960814099525685,52.66171975273239,2017-10-12,Thursday,1,10:25,10:40,
Norfolk,CEN422,Old costessey,WEST END AVENUE,"WEST END AVENUE, Old costessey",1.196190463527061,52.66422601224198,2017-10-12,Thursday,1,10:45,11:00,
Norfolk,CEN422,New costessey,BASELINE CENTRE - WOODHILL RISE,"BASELINE CENTRE - WOODHILL RISE, New costessey",1.2382426629815129,52.642595766286234,2017-10-12,Thursday,1,11:10,12:10,
Norfolk,CEN422,Cringleford,STRATFORD CRESCENT,"STRATFORD CRESCENT, Cringleford",1.2365201650319282,52.61267589240725,2017-10-12,Thursday,1,12:25,12:35,
Norfolk,CEN422,Cringleford,NEWFOUND DRIVE,"NEWFOUND DRIVE, Cringleford",1.2386379405761976,52.60954210322197,2017-10-12,Thursday,1,12:40,12:55,
Norfolk,CEN422,Eaton,LINDFORD DRIVE,"LINDFORD DRIVE, Eaton",1.264225408133754,52.60555631805658,2017-10-12,Thursday,1,14:15,14:30,
Norfolk,CEN422,Eaton,CHURCH LANE/LINDFORD DRIVE,"CHURCH LANE/LINDFORD DRIVE, Eaton",1.2578264785887299,52.60393391140965,2017-10-12,Thursday,1,14:35,14:50,
Norfolk,CEN422,Eaton,BUCKLAND RISE,"BUCKLAND RISE, Eaton",1.259140699330678,52.605318736372844,2017-10-12,Thursday,1,14:55,15:10,
Norfolk,CEN422,Eaton,AMDERLEY DRIVE,"AMDERLEY DRIVE, Eaton",1.2601780316905862,52.607349734112624,2017-10-12,Thursday,1,15:15,15:35,
Norfolk,CEN422,Eaton,BRADENHAM WAY,"BRADENHAM WAY, Eaton",1.2660529058175065,52.60847383902742,2017-10-12,Thursday,1,15:40,15:50,
Norfolk,CEN422,Eaton,GREENWAYS/DUVERLIN CLOSE,"GREENWAYS/DUVERLIN CLOSE, Eaton",1.2644733058146684,52.60868830811273,2017-10-12,Thursday,1,15:55,16:10,
Norfolk,CEN422,Eaton,GREENWAYS/CRANLEIGH RISE,"GREENWAYS/CRANLEIGH RISE, Eaton",1.259729202760091,52.60886405811496,2017-10-12,Thursday,1,16:15,16:40,
Norfolk,CEN424,Bowthorpe,BELOE AVE - SEABROOK COURT,"BELOE AVE - SEABROOK COURT, Bowthorpe",1.224944367024916,52.63768852652215,2017-10-19,Thursday,1,10:20,10:35,
Norfolk,CEN424,Bowthorpe,RAWLEY RD - BRADECROFT COURT,"RAWLEY RD - BRADECROFT COURT, Bowthorpe",1.2286370895280827,52.640654700228545,2017-10-19,Thursday,1,10:40,10:55,
Norfolk,CEN424,Bowthorpe,RAWLEY RD - LEYHAM COURT,"RAWLEY RD - LEYHAM COURT, Bowthorpe",1.2243583987559286,52.64057346477469,2017-10-19,Thursday,1,11:00,11:15,
Norfolk,CEN424,Bowthorpe,YAXLEY WAY,"YAXLEY WAY, Bowthorpe",1.2212381332584483,52.639759052288774,2017-10-19,Thursday,1,11:20,11:35,
Norfolk,CEN424,Bowthorpe,CHAPEL BREAK COMMUNITY CENTRE,"CHAPEL BREAK COMMUNITY CENTRE, Bowthorpe",1.2123354955026726,52.64012689380294,2017-10-19,Thursday,1,11:40,12:15,
Norfolk,CEN424,Bowthorpe,LISLE ROAD- ALNWICK COURT,"LISLE ROAD- ALNWICK COURT, Bowthorpe",1.2180472574824281,52.639189306792446,2017-10-19,Thursday,1,13:25,13:50,
Norfolk,CEN424,Bowthorpe,BENDISH WAY- ASHWELL COURT,"BENDISH WAY- ASHWELL COURT, Bowthorpe",1.2140542087356523,52.63775988371064,2017-10-19,Thursday,1,13:55,14:15,
Norfolk,CEN424,Bowthorpe,BISHY BARNABEE WAY,"BISHY BARNABEE WAY, Bowthorpe",1.2200133287349637,52.632750352656124,2017-10-19,Thursday,1,14:20,14:30,
Norfolk,CEN424,Bowthorpe,CHAPEL BREAK COMMUNITY CENTRE,"CHAPEL BREAK COMMUNITY CENTRE, Bowthorpe",1.2123354955026726,52.64012689380294,2017-10-19,Thursday,1,14:40,15:50,
Norfolk,CEN427,Mulbarton,BLUEBELL ROAD,"BLUEBELL ROAD, Mulbarton",1.2376222882384822,52.557145379731516,2017-10-12,Thursday,1,09:35,10:20,
Norfolk,CEN427,Mulbarton,HANOVER GARDENS,"HANOVER GARDENS, Mulbarton",1.2322611231333485,52.55527740902597,2017-10-12,Thursday,1,10:55,11:35,
Norfolk,CEN427,Mulbarton,CUCKOOFIELD LANE,"CUCKOOFIELD LANE, Mulbarton",1.2312646184261187,52.55577231302422,2017-10-12,Thursday,1,11:40,12:00,
Norfolk,CEN427,Mulbarton,VILLAGE HALL,"VILLAGE HALL, Mulbarton",1.2371345646254173,52.56134082986946,2017-10-12,Thursday,1,12:05,12:35,
Norfolk,CEN427,Mulbarton,LARK RISE,"LARK RISE, Mulbarton",1.2287818329527862,52.55712622190128,2017-10-12,Thursday,1,14:15,14:40,
Norfolk,CEN427,Mulbarton,THE POND - MULBARTON COMMON,"THE POND - MULBARTON COMMON, Mulbarton",1.2350432126490238,52.564204099870715,2017-10-12,Thursday,1,14:45,15:00,
Norfolk,CEN428,Hempnall,OLD MARKET WAY (BAINARD RISE),"OLD MARKET WAY (BAINARD RISE), Hempnall",1.296972492627259,52.5063899600887,2017-10-19,Thursday,1,09:40,10:00,
Norfolk,CEN428,Hempnall green,THREE HORSESHOES,"THREE HORSESHOES, Hempnall green",1.3119682812495668,52.48569829105544,2017-10-19,Thursday,1,10:10,10:35,
Norfolk,CEN428,Topcroft,THE OLD CHAPEL,"THE OLD CHAPEL, Topcroft",1.3335615534872776,52.47648389383671,2017-10-19,Thursday,1,10:40,10:50,
Norfolk,CEN428,Topcroft,CHURCH ROAD,"CHURCH ROAD, Topcroft",1.3368670652343524,52.483954627308776,2017-10-19,Thursday,1,10:55,11:15,
Norfolk,CEN428,Hempnall,ROAD GREEN FARM,"ROAD GREEN FARM, Hempnall",1.3275363592414091,52.49617078923739,2017-10-19,Thursday,1,11:20,11:35,
Norfolk,CEN428,Hempnall,MILLFIELDS,"MILLFIELDS, Hempnall",1.295408978825029,52.50007482646604,2017-10-19,Thursday,1,11:40,12:10,
Norfolk,CEN428,Hempnall,ROLAND DRIVE,"ROLAND DRIVE, Hempnall",1.3006859756319948,52.498515541853756,2017-10-19,Thursday,1,12:15,12:35,
Norfolk,CEN428,Hempnall,FAIRSTEAD LANE,"FAIRSTEAD LANE, Hempnall",1.2934679682190702,52.50505760941356,2017-10-19,Thursday,1,12:40,12:55,
Norfolk,CEN428,Tasburgh,HARVEY CLOSE,"HARVEY CLOSE, Tasburgh",1.2410977423451892,52.52303566435581,2017-10-19,Thursday,1,14:40,15:10,
Norfolk,CEN428,Tasburgh,LAMMAS RD/HENRY PRESTON RD JUNCTION,"LAMMAS RD/HENRY PRESTON RD JUNCTION, Tasburgh",1.2485711995123305,52.51561751365679,2017-10-19,Thursday,1,15:15,15:40,
Norfolk,CEN428,Tasburgh,VALLEY ROAD (Opp No.2),"VALLEY ROAD (Opp No.2), Tasburgh",1.2476517611513434,52.51454552565006,2017-10-19,Thursday,1,15:45,15:55,
Norfolk,CEN428,Tasburgh,VALLEY ROAD (Nr No. 27),"VALLEY ROAD (Nr No. 27), Tasburgh",1.2456152125506639,52.51491623472821,2017-10-19,Thursday,1,16:00,16:10,
Norfolk,CEN428,Tasburgh,ORCHARD WAY,"ORCHARD WAY, Tasburgh",1.250836480855669,52.51415220949238,2017-10-19,Thursday,1,16:15,16:30,
Norfolk,CEN429,Eaton,WAITROSE CAR PARK,"WAITROSE CAR PARK, Eaton",1.2502806386167016,52.6075590469927,2017-10-19,Thursday,1,09:40,12:20,
Norfolk,CEN429,Cringleford,OAKFIELDS ROAD (opp No.27),"OAKFIELDS ROAD (opp No.27), Cringleford",1.2477087651959602,52.60295291594361,2017-10-19,Thursday,1,12:30,12:50,
Norfolk,CEN429,Cringleford,TUNGATE CRESCENT,"TUNGATE CRESCENT, Cringleford",1.244920838359156,52.600610086499614,2017-10-19,Thursday,1,14:00,14:20,
Norfolk,CEN429,Cringleford,BRETTINGHAM AVENUE (KEDLESTON DRIVE),"BRETTINGHAM AVENUE (KEDLESTON DRIVE), Cringleford",1.238196704662614,52.60176561770286,2017-10-19,Thursday,1,14:25,14:45,
Norfolk,CEN429,Cringleford,THE WILLOWS CTRE,"THE WILLOWS CTRE, Cringleford",1.2361656576948072,52.60647093382045,2017-10-19,Thursday,1,15:05,16:00,
Norfolk,CEN429,Cringleford,THE RIDINGS,"THE RIDINGS, Cringleford",1.241254209861754,52.604362036382994,2017-10-19,Thursday,1,16:10,16:30,
Norfolk,CEN441,"Tivetshall, south view-larkfield","SOUTH VIEW-LARKFIELD, RECTORY ROAD","SOUTH VIEW-LARKFIELD, RECTORY ROAD, Tivetshall, south view-larkfield",1.2018837870996109,52.426440688082394,2017-10-12,Thursday,1,11:05,11:20,
Norfolk,CEN441,Tivetshall,ST MARY'S - POST OFFICE,"ST MARY'S - POST OFFICE, Tivetshall",1.1906271165675855,52.427842493953165,2017-10-12,Thursday,1,11:25,11:45,
Norfolk,CEN441,Tivetshall,RED GABLES BUNGALOW (Opp. Ex VILLAGE HALL),"RED GABLES BUNGALOW (Opp. Ex VILLAGE HALL), Tivetshall",1.188198770314061,52.43109185561043,2017-10-12,Thursday,1,11:50,12:05,
Norfolk,CEN441,Tivetshall,GREEN LANE BUNGALOWS,"GREEN LANE BUNGALOWS, Tivetshall",1.188892065931352,52.43498544121286,2017-10-12,Thursday,1,12:10,12:25,
Norfolk,CEN441,Gissing,BURSTON ROAD COUNCIL HOUSES,"BURSTON ROAD COUNCIL HOUSES, Gissing",1.1535508351664705,52.420015182428216,2017-10-12,Thursday,1,12:50,13:05,
Norfolk,CEN441,Shelfanger,VILLAGE SEAT,"VILLAGE SEAT, Shelfanger",1.0969142962610754,52.413050535238476,2017-10-12,Thursday,1,14:50,15:05,
Norfolk,CEN441,Tibenham,THE HEYWOOD,"THE HEYWOOD, Tibenham",1.1183654114103514,52.41648837481239,2017-10-12,Thursday,1,15:15,15:40,
Norfolk,CEN441,Burston,BURSTON PRIMARY SCHOOL,"BURSTON PRIMARY SCHOOL, Burston",1.1420598488759703,52.405301893716846,2017-10-12,Thursday,1,16:20,17:05,
Norfolk,CEN442,Scole,RANSOME AVE (NR POST BOX),"RANSOME AVE (NR POST BOX), Scole",1.1608964524965268,52.36828457605864,2017-10-12,Thursday,1,10:00,10:15,
Norfolk,CEN442,Scole,REEVES CLOSE,"REEVES CLOSE, Scole",1.1613636486843624,52.366392364396916,2017-10-12,Thursday,1,10:20,10:30,
Norfolk,CEN442,Scole,ST ANDREWS ROAD,"ST ANDREWS ROAD, Scole",1.1584551160780203,52.364959248120364,2017-10-12,Thursday,1,10:35,10:55,
Norfolk,CEN442,Scole,ROBINSON ROAD,"ROBINSON ROAD, Scole",1.1552378560801924,52.36455061075312,2017-10-12,Thursday,1,11:00,11:15,
Norfolk,CEN442,Scole,CLEMENTS CLOSE,"CLEMENTS CLOSE, Scole",1.1550857478079162,52.36324158283857,2017-10-12,Thursday,1,11:20,11:30,
Norfolk,CEN442,Brockdish,WAVENEY HEIGHTS,"WAVENEY HEIGHTS, Brockdish",1.244532099597238,52.36952352792671,2017-10-12,Thursday,1,11:40,11:55,
Norfolk,CEN442,Brockdish,GROVE ROAD,"GROVE ROAD, Brockdish",1.248713822275745,52.36964238211324,2017-10-12,Thursday,1,12:00,12:10,
Norfolk,CEN442,Thorpe abbotts,TELEPHONE BOX/VILLAGE PUMP,"TELEPHONE BOX/VILLAGE PUMP, Thorpe abbotts",1.2214712030580128,52.372862161857455,2017-10-12,Thursday,1,12:15,12:25,
Norfolk,CEN442,Billingford,UPPER BILLINGFORD (POST BOX),"UPPER BILLINGFORD (POST BOX), Billingford",1.1968939123353743,52.37356613282606,2017-10-12,Thursday,1,12:35,12:45,
Norfolk,CEN442,Dickleburgh,MERLEWOOD,"MERLEWOOD, Dickleburgh",1.1957624623740835,52.396342217612215,2017-10-12,Thursday,1,13:55,14:10,
Norfolk,CEN442,Dickleburgh,THE GREEN,"THE GREEN, Dickleburgh",1.1911311659414276,52.39634153397187,2017-10-12,Thursday,1,14:15,14:30,
Norfolk,CEN442,Dickleburgh,LIMMER AVENUE,"LIMMER AVENUE, Dickleburgh",1.191486639990551,52.394749013786466,2017-10-12,Thursday,1,14:35,14:50,
Norfolk,CEN442,Dickleburgh,VILLAGE CENTRE,"VILLAGE CENTRE, Dickleburgh",1.1883413870374275,52.39476201780024,2017-10-12,Thursday,1,14:55,15:55,
Norfolk,CEN442,Dickleburgh,EX CHAPEL,"EX CHAPEL, Dickleburgh",1.1822488488486609,52.39569980871159,2017-10-12,Thursday,1,16:00,16:10,
Norfolk,CEN445,North lopham,CHERRY TREE CLOSE,"CHERRY TREE CLOSE, North lopham",0.9907156657325539,52.41375436871794,2017-10-26,Thursday,1,11:15,11:30,
Norfolk,CEN445,North lopham,TANNS LANE,"TANNS LANE, North lopham",0.9923545008555498,52.40776824119889,2017-10-26,Thursday,1,11:35,11:50,
Norfolk,CEN445,North lopham,POST OFFICE,"POST OFFICE, North lopham",0.9918712846680195,52.406278585337276,2017-10-26,Thursday,1,11:55,12:05,
Norfolk,CEN445,North lopham,SCHOOL CANTEEN,"SCHOOL CANTEEN, North lopham",0.9941157999797865,52.4035956442142,2017-10-26,Thursday,1,12:10,12:20,
Norfolk,CEN445,South lopham,ANFIELD HOUSE (North Lopham Road),"ANFIELD HOUSE (North Lopham Road), South lopham",0.9986222508768673,52.39416415810143,2017-10-26,Thursday,1,12:25,12:45,
Norfolk,CEN445,South lopham,POPLAR TREE FARM,"POPLAR TREE FARM, South lopham",0.9965568295358161,52.37865795922589,2017-10-26,Thursday,1,13:10,13:25,
Norfolk,CEN445,Fersfield,WINDY RIDGE,"WINDY RIDGE, Fersfield",1.045210945423606,52.415303034144806,2017-10-26,Thursday,1,14:40,14:55,
Norfolk,CEN445,Fersfield,OLD POST OFFICE,"OLD POST OFFICE, Fersfield",1.0381949803655308,52.40824393028321,2017-10-26,Thursday,1,15:00,15:15,
Norfolk,CEN445,Bressingham,38 COMMON ROAD,"38 COMMON ROAD, Bressingham",1.070711233262246,52.3921860152151,2017-10-26,Thursday,1,15:50,16:30,
Norfolk,CEN445,Bressingham,HIGH ROAD,"HIGH ROAD, Bressingham",1.0681327136441314,52.3897708031302,2017-10-26,Thursday,1,16:35,17:05,
Norfolk,CEN446,Thelverton,LAY-BY NEAR TELEPHONE BOX,"LAY-BY NEAR TELEPHONE BOX, Thelverton",1.1766128472303616,52.38540073525788,2017-11-02,Thursday,1,11:10,11:25,
Norfolk,CEN446,Garboldisham,BACK STREET BUNGALOWS,"BACK STREET BUNGALOWS, Garboldisham",0.9429816941629791,52.39817166428422,2017-11-02,Thursday,1,11:45,12:00,
Norfolk,CEN446,Garboldisham,ELM GROVE ESTATE,"ELM GROVE ESTATE, Garboldisham",0.9478766626883,52.39463214805779,2017-11-02,Thursday,1,12:02,12:25,
Norfolk,CEN446,Garboldiham,THE COMMON [THE FIRS],"THE COMMON [THE FIRS], Garboldiham",0.9444728928778955,52.38943797711946,2017-11-02,Thursday,1,12:30,12:45,
Norfolk,CEN446,Garboldiham,SMALLWORTH HARBOUR VIEW,"SMALLWORTH HARBOUR VIEW, Garboldiham",0.9515712589501358,52.38875717770847,2017-11-02,Thursday,1,12:50,13:05,
Norfolk,CEN446,Blo norton,FAIRFIELDS NO. 2,"FAIRFIELDS NO. 2, Blo norton",0.958208764396375,52.380092411147736,2017-11-02,Thursday,1,13:15,13:25,
Norfolk,CEN446,Blo norton,HILL ACRE COTTAGE,"HILL ACRE COTTAGE, Blo norton",0.9852812193826795,52.375768853340766,2017-11-02,Thursday,1,14:35,14:45,
Norfolk,CEN446,Blo norton,THE BANKS [THE STUDIO],"THE BANKS [THE STUDIO], Blo norton",0.9802426924627593,52.37165122899975,2017-11-02,Thursday,1,14:50,15:00,
Norfolk,CEN446,Blo norton,THELNETHAM ROAD/FEN ROAD JUNCTION,"THELNETHAM ROAD/FEN ROAD JUNCTION, Blo norton",0.9561473471693018,52.374316339374275,2017-11-02,Thursday,1,15:10,15:30,
Norfolk,CEN446,Roydon,HIGH ROAD LAY BY-RECYCLING CENTRE,"HIGH ROAD LAY BY-RECYCLING CENTRE, Roydon",1.0842697337227774,52.38066265744071,2017-11-02,Thursday,1,15:50,17:05,
Norfolk,CEN448,Gt ellingham,GREAT ELLINGHAM PRE-SCHOOL,"GREAT ELLINGHAM PRE-SCHOOL, Gt ellingham",0.9719173666740003,52.537346615490215,2017-10-19,Thursday,1,10:00,10:30,
Norfolk,CEN448,Gt ellingham,CHEQUERS GREEN,"CHEQUERS GREEN, Gt ellingham",0.9731795298356513,52.53616376394416,2017-10-19,Thursday,1,10:35,10:55,
Norfolk,CEN448,Gt ellingham,HOME CLOSE,"HOME CLOSE, Gt ellingham",0.9758550587970427,52.535817685809874,2017-10-19,Thursday,1,11:00,11:20,
Norfolk,CEN448,Gt ellingham,CHURCH STREET,"CHURCH STREET, Gt ellingham",0.9747152642572849,52.53313940295532,2017-10-19,Thursday,1,11:25,11:45,
Norfolk,CEN448,Gt ellingham,THE CROFT,"THE CROFT, Gt ellingham",0.9742526468116397,52.52978757673158,2017-10-19,Thursday,1,11:50,12:10,
Norfolk,CEN448,Gt ellingham,HOME FARM COTTAGES,"HOME FARM COTTAGES, Gt ellingham",0.9483145317997782,52.52297271627226,2017-10-19,Thursday,1,12:15,12:30,
Norfolk,CEN448,Rocklands,VILLAGE HALL,"VILLAGE HALL, Rocklands",0.9355487375449509,52.53361440402021,2017-10-19,Thursday,1,13:45,14:00,
Norfolk,CEN448,Caston,THE GREEN,"THE GREEN, Caston",0.8872884398929215,52.540917617488226,2017-10-19,Thursday,1,14:10,14:30,
Norfolk,CEN448,Rockland st peter,CHAPEL STREET,"CHAPEL STREET, Rockland st peter",0.9329748659745384,52.53880433733666,2017-10-19,Thursday,1,14:40,14:55,
Norfolk,CEN448,Rocklands,SCHOOL CORNER,"SCHOOL CORNER, Rocklands",0.9331030820825454,52.53055446611282,2017-10-19,Thursday,1,15:05,15:50,
Norfolk,CEN540,Alderford,HALL ROAD FARM,"HALL ROAD FARM, Alderford",1.138736529000272,52.72483158372651,2017-10-27,Friday,1,09:55,10:10,
Norfolk,CEN540,Booton,NEWINGTON HOUSE,"NEWINGTON HOUSE, Booton",1.141753558997381,52.75770325793371,2017-10-27,Friday,1,10:20,10:30,
Norfolk,CEN540,Swannington,VILLAGE PUMP,"VILLAGE PUMP, Swannington",1.1593097387900537,52.72685686947807,2017-10-27,Friday,1,10:40,10:50,
Norfolk,CEN540,Swannington,SWAN CLOSE,"SWAN CLOSE, Swannington",1.1629828128411392,52.72439359703019,2017-10-27,Friday,1,10:55,11:10,
Norfolk,CEN540,Swannington,UPGATE OUTSIDE THE CHALET,"UPGATE OUTSIDE THE CHALET, Swannington",1.1704535950876647,52.71936443063077,2017-10-27,Friday,1,11:15,11:30,
Norfolk,CEN540,Felthorpe,VILLAGE HALL CAR PARK,"VILLAGE HALL CAR PARK, Felthorpe",1.2094468256094593,52.71709132570134,2017-10-27,Friday,1,11:40,12:00,
Norfolk,CEN540,Felthorpe,LAY BY Nr.MARINERS PUB,"LAY BY Nr.MARINERS PUB, Felthorpe",1.2054132311057648,52.715203974776266,2017-10-27,Friday,1,12:05,12:15,
Norfolk,CEN540,Felthorpe,CHURCH LANE (CHURCH ROOMS),"CHURCH LANE (CHURCH ROOMS), Felthorpe",1.2015979624098596,52.71224935415938,2017-10-27,Friday,1,12:20,12:35,
Norfolk,CEN540,"Haveringland, haveringland hall","HAVERINGLAND HALL, CARAVAN PARK","HAVERINGLAND HALL, CARAVAN PARK, Haveringland, haveringland hall",1.1882254261221916,52.74511243599174,2017-10-27,Friday,1,13:45,14:05,
Norfolk,CEN540,Haveringland,THE STOCKS,"THE STOCKS, Haveringland",1.202727742873039,52.72725597308659,2017-10-27,Friday,1,14:15,14:30,
Norfolk,CEN540,Thorpe marriott,THE SQUARE (Nr.SUPERMARKET),"THE SQUARE (Nr.SUPERMARKET), Thorpe marriott",1.2122294619390452,52.68685151188154,2017-10-27,Friday,1,14:45,15:05,
Norfolk,CEN540,Thorpe marriott,FELSHAM WAY,"FELSHAM WAY, Thorpe marriott",1.2122816614207204,52.689979858841546,2017-10-27,Friday,1,15:10,15:30,
Norfolk,CEN541,Hemsby,THE BELL PUB - CAR PARK,"THE BELL PUB - CAR PARK, Hemsby",1.6884772171749278,52.6960983464183,2017-10-20,Friday,1,10:00,10:30,
Norfolk,CEN541,Hemsby,Opp KINGS HEAD PUB (Nr Taylors Loke),"Opp KINGS HEAD PUB (Nr Taylors Loke), Hemsby",1.684187146847402,52.698597537869084,2017-10-20,Friday,1,10:35,10:50,
Norfolk,CEN541,Winterton,BUSH ROAD,"BUSH ROAD, Winterton",1.695856859904304,52.70895561641586,2017-10-20,Friday,1,10:55,11:10,
Norfolk,CEN541,Winterton,GEORGE BECK ROAD,"GEORGE BECK ROAD, Winterton",1.691170643297952,52.71238487592906,2017-10-20,Friday,1,11:15,11:30,
Norfolk,CEN541,Winterton,HILLVIEW DRIVE,"HILLVIEW DRIVE, Winterton",1.69470629219214,52.71163598393958,2017-10-20,Friday,1,11:35,11:55,
Norfolk,CEN541,Winterton,MARKET PLACE (Methodist Chapel),"MARKET PLACE (Methodist Chapel), Winterton",1.6923432416644064,52.71556844195052,2017-10-20,Friday,1,13:05,14:20,
Norfolk,CEN541,Winterton,CHURCH (Opp Empsons Loke),"CHURCH (Opp Empsons Loke), Winterton",1.6885564541611309,52.71545259063442,2017-10-20,Friday,1,14:25,15:10,
Norfolk,CEN5410,Hellington,HELLINGTON HILL COUNCIL HOUSES,"HELLINGTON HILL COUNCIL HOUSES, Hellington",1.4131483273884466,52.57892271428259,2017-10-13,Friday,1,09:35,09:50,
Norfolk,CEN5410,Ashby st mary,MILL COMMON,"MILL COMMON, Ashby st mary",1.4350570561427267,52.56191901337738,2017-10-13,Friday,1,10:00,10:15,
Norfolk,CEN5410,Ashby st mary,MILL ROAD (NEAR ASHBY SIGN),"MILL ROAD (NEAR ASHBY SIGN), Ashby st mary",1.4326434861768378,52.56030716991194,2017-10-13,Friday,1,10:20,10:35,
Norfolk,CEN5410,Thurton,ST GEORGES CLOSE,"ST GEORGES CLOSE, Thurton",1.4300708924629295,52.55949138362354,2017-10-13,Friday,1,10:40,10:55,
Norfolk,CEN5410,Thurton,PARK CLOSE,"PARK CLOSE, Thurton",1.4326764175286877,52.558084638867655,2017-10-13,Friday,1,11:00,11:15,
Norfolk,CEN5410,Thurton,ST ETHELBERTS CLOSE,"ST ETHELBERTS CLOSE, Thurton",1.4353680114269167,52.55664835136359,2017-10-13,Friday,1,11:20,11:30,
Norfolk,CEN5410,Bergh apton,HILL VIEW COUNCIL HOUSES,"HILL VIEW COUNCIL HOUSES, Bergh apton",1.405326662006465,52.549080667726884,2017-10-13,Friday,1,11:40,11:50,
Norfolk,CEN5410,Bergh apton,CHURCH ROAD BUNGALOWS,"CHURCH ROAD BUNGALOWS, Bergh apton",1.3997277097887886,52.55375683407524,2017-10-13,Friday,1,11:55,12:05,
Norfolk,CEN5410,Bergh apton,BERGH APTON CORNER,"BERGH APTON CORNER, Bergh apton",1.3936287377360306,52.56439219045123,2017-10-13,Friday,1,12:10,12:20,
Norfolk,CEN5410,Hardley,AIREY HOUSES HARDLEY ROAD,"AIREY HOUSES HARDLEY ROAD, Hardley",1.4994786796007356,52.55449871773737,2017-10-13,Friday,1,13:35,13:50,
Norfolk,CEN5410,Claxton,THE WARREN,"THE WARREN, Claxton",1.4541989470581775,52.577865976695804,2017-10-13,Friday,1,14:05,14:25,
Norfolk,CEN5410,Rockland st mary,12 LOWER ROAD (NEAR NEW INN),"12 LOWER ROAD (NEAR NEW INN), Rockland st mary",1.4373920695056397,52.587979404348964,2017-10-13,Friday,1,14:30,14:40,
Norfolk,CEN5410,Rockland st mary,1 BROADFIELDS WAY,"1 BROADFIELDS WAY, Rockland st mary",1.4268275855202568,52.58960805603879,2017-10-13,Friday,1,14:45,15:05,
Norfolk,CEN5410,Rockland st mary,102 THE STREET (ex SHOP),"102 THE STREET (ex SHOP), Rockland st mary",1.423234605437406,52.588605797653955,2017-10-13,Friday,1,15:10,15:20,
Norfolk,CEN5410,Rockland st mary,EX-POST OFFICE (No.44 'Honkers'),"EX-POST OFFICE (No.44 'Honkers'), Rockland st mary",1.4177192994924863,52.5877579210718,2017-10-13,Friday,1,15:25,15:40,
Norfolk,CEN5411,Wramplingham,MILL HOUSE,"MILL HOUSE, Wramplingham",1.1209523379925879,52.61435005215328,2017-11-03,Friday,1,15:25,15:35,
Norfolk,CEN5412,Old buckenham,THE SUN EX PUB,"THE SUN EX PUB, Old buckenham",1.0478314463614355,52.47286558034846,2017-10-27,Friday,1,10:00,10:20,
Norfolk,CEN5412,Old buckenham,ST ANDREWS CLOSE,"ST ANDREWS CLOSE, Old buckenham",1.0434485207592306,52.47806879427964,2017-10-27,Friday,1,10:25,10:45,
Norfolk,CEN5412,Old buckenham,25 HARGHAM ROAD,"25 HARGHAM ROAD, Old buckenham",1.0323680676433415,52.47972056537698,2017-10-27,Friday,1,10:50,11:10,
Norfolk,CEN5412,Old buckenham,FEN STREET,"FEN STREET, Old buckenham",1.025225390420569,52.48059607280052,2017-10-27,Friday,1,11:15,11:30,
Norfolk,CEN5412,Banham dam brigg,HAUGH ROAD BUNGALOWS,"HAUGH ROAD BUNGALOWS, Banham dam brigg",1.0657562329771642,52.46822903467843,2017-10-27,Friday,1,11:40,12:10,
Norfolk,CEN5412,New buckenham,CHAPEL STREET,"CHAPEL STREET, New buckenham",1.0709863391667496,52.47164568150999,2017-10-27,Friday,1,13:20,15:15,
Norfolk,CEN5414,Thurne,HOME FARM,"HOME FARM, Thurne",1.5543828487943425,52.68709475797494,2017-10-20,Friday,1,09:55,10:10,
Norfolk,CEN5414,Thurne,OLD LION COTTAGES,"OLD LION COTTAGES, Thurne",1.5551345400168244,52.68923984410779,2017-10-20,Friday,1,10:15,10:30,
Norfolk,CEN5414,Repps with bastwick,EVANS LOMBE CLOSE,"EVANS LOMBE CLOSE, Repps with bastwick",1.5863821312615176,52.699522589198665,2017-10-20,Friday,1,10:40,10:55,
Norfolk,CEN5414,Fleggburgh,WESTFIELD CLOSE,"WESTFIELD CLOSE, Fleggburgh",1.6130141415022623,52.670281114884176,2017-10-20,Friday,1,11:10,11:25,
Norfolk,CEN5414,Fleggburgh,VILLAGE HALL,"VILLAGE HALL, Fleggburgh",1.6163340513845381,52.66820092727129,2017-10-20,Friday,1,11:30,11:50,
Norfolk,CEN5414,Filby,POST OFFICE - CAR PARK,"POST OFFICE - CAR PARK, Filby",1.6438611493767208,52.662607556784465,2017-10-20,Friday,1,12:55,13:20,
Norfolk,CEN5414,Filby,NORVIC (NR HOWES LOKE),"NORVIC (NR HOWES LOKE), Filby",1.6429019066221389,52.65961487328593,2017-10-20,Friday,1,13:25,13:40,
Norfolk,CEN5414,Stokesby,WINSFORD HALL,"WINSFORD HALL, Stokesby",1.615824961715274,52.647717775012836,2017-10-20,Friday,1,13:45,14:00,
Norfolk,CEN5414,Runham,COUNCIL HOUSES,"COUNCIL HOUSES, Runham",1.6425081761933467,52.642797942088386,2017-10-20,Friday,1,14:05,14:25,
Norfolk,CEN5414,Runham,THE GREEN (Nr. Bus Stop),"THE GREEN (Nr. Bus Stop), Runham",1.637499024433824,52.640883241539655,2017-10-20,Friday,1,14:30,14:50,
Norfolk,CEN5414,Stokesby,THE GREEN,"THE GREEN, Stokesby",1.5921540204893494,52.638769455113135,2017-10-20,Friday,1,14:55,15:15,
Norfolk,CEN5415,Kenninghall,MARKET SQUARE,"MARKET SQUARE, Kenninghall",0.9972219500903644,52.43485881841349,2017-10-20,Friday,1,10:05,10:25,
Norfolk,CEN5415,Kenninghall,CHURCH LAY-BY,"CHURCH LAY-BY, Kenninghall",1.001465510522251,52.43342907247224,2017-10-20,Friday,1,10:30,10:50,
Norfolk,CEN5415,Kenninghall,SCHOOL CLOSE,"SCHOOL CLOSE, Kenninghall",0.9938281112087688,52.43320014629821,2017-10-20,Friday,1,11:00,11:20,
Norfolk,CEN5415,Quidenham,EX POST OFFICE,"EX POST OFFICE, Quidenham",0.9811622284068651,52.45284704615129,2017-10-20,Friday,1,11:25,11:35,
Norfolk,CEN5415,Quidenham,ST EDMUNDS LODGE,"ST EDMUNDS LODGE, Quidenham",0.9902937707273218,52.45052988833565,2017-10-20,Friday,1,14:30,14:45,
Norfolk,CEN542,Hardwick,MILL ROAD,"MILL ROAD, Hardwick",1.2672588047842355,52.45773939335311,2017-10-20,Friday,1,10:00,10:15,
Norfolk,CEN542,Pulham st mary,STATION ROAD (BESIDE NO 15),"STATION ROAD (BESIDE NO 15), Pulham st mary",1.2465450697406422,52.42015814170502,2017-10-20,Friday,1,10:55,11:15,
Norfolk,CEN542,Pulham st mary,OPPOSITE POST OFFICE,"OPPOSITE POST OFFICE, Pulham st mary",1.249985737072839,52.420935938728384,2017-10-20,Friday,1,11:20,11:50,
Norfolk,CEN542,Pulham st mary,GOLDSMITH WAY,"GOLDSMITH WAY, Pulham st mary",1.244619645091733,52.42358376737947,2017-10-20,Friday,1,11:55,12:10,
Norfolk,CEN542,Pulham st mary,NORWICH ROAD LAY-BY,"NORWICH ROAD LAY-BY, Pulham st mary",1.2440144467410004,52.42195450073472,2017-10-20,Friday,1,12:15,12:30,
Norfolk,CEN542,Pulham market,CHAPEL CLOSE,"CHAPEL CLOSE, Pulham market",1.2277478690592942,52.43045861716468,2017-10-20,Friday,1,12:35,13:00,
Norfolk,CEN542,Pulham market,THE GREEN,"THE GREEN, Pulham market",1.2304060361580347,52.429585504084,2017-10-20,Friday,1,14:10,14:40,
Norfolk,CEN542,Pulham north green,MOORLANDS,"MOORLANDS, Pulham north green",1.2708859180996541,52.44927466986281,2017-10-20,Friday,1,13:20,13:35,
Norfolk,CEN542,Pulham market,SPRINGFIELD WALK,"SPRINGFIELD WALK, Pulham market",1.225041814230897,52.433698364116616,2017-10-20,Friday,1,14:50,15:15,
Norfolk,CEN542,Hardwick,MILL ROAD,"MILL ROAD, Hardwick",1.2672588047842355,52.45773939335311,2017-10-20,Friday,1,13:40,13:50,
Norfolk,CEN542,Pulham market,JULIANS WAY,"JULIANS WAY, Pulham market",1.2243519509625254,52.43190942670337,2017-10-20,Friday,1,15:20,15:35,
Norfolk,CEN543,Earsham,DUKES WAY,"DUKES WAY, Earsham",1.4147137998761463,52.45013408509209,2017-10-27,Friday,1,09:50,10:05,
Norfolk,CEN543,Earsham,VILLAGE HALL,"VILLAGE HALL, Earsham",1.4167658981497442,52.45020966918264,2017-10-27,Friday,1,10:30,10:45,
Norfolk,CEN543,Denton,"NORWICH ROAD (just past ""SUNBEAM"" COTTAGE)","NORWICH ROAD (just past ""SUNBEAM"" COTTAGE), Denton",1.3530219798127703,52.45367286868019,2017-10-27,Friday,1,10:55,11:05,
Norfolk,CEN543,Denton,TENNIS COURTS (NORWICH ROAD),"TENNIS COURTS (NORWICH ROAD), Denton",1.3549354485116412,52.44824904177974,2017-10-27,Friday,1,11:10,11:25,
Norfolk,CEN543,Denton,EX POST OFFICE,"EX POST OFFICE, Denton",1.3530828763431753,52.44595416044014,2017-10-27,Friday,1,11:30,11:45,
Norfolk,CEN543,Denton,THE OLD SCHOOL,"THE OLD SCHOOL, Denton",1.3576453541768663,52.43685739579285,2017-10-27,Friday,1,11:50,12:00,
Norfolk,CEN543,Alburgh,VILLAGE HALL,"VILLAGE HALL, Alburgh",1.3339752595527496,52.43541416628451,2017-10-27,Friday,1,13:50,14:05,
Norfolk,CEN543,"Alburgh, mill farm","MILL FARM, MILL ROAD","MILL FARM, MILL ROAD, Alburgh, mill farm",1.3162391068308095,52.441633615180564,2017-10-27,Friday,1,13:30,13:45,
Norfolk,CEN543,Alburgh,THE STREET (Lay-by opp no.38),"THE STREET (Lay-by opp no.38), Alburgh",1.3313916133588137,52.438032387657685,2017-10-27,Friday,1,13:50,14:05,
Norfolk,CEN543,Wortwell,WILLOW CLOSE,"WILLOW CLOSE, Wortwell",1.3470477261314284,52.41587795243799,2017-10-27,Friday,1,14:15,14:30,
Norfolk,CEN543,"Wortwell, sancroft way","SANCROFT WAY, LOW ROAD","SANCROFT WAY, LOW ROAD, Wortwell, sancroft way",1.344144825738771,52.41114830183775,2017-10-27,Friday,1,14:35,14:45,
Norfolk,CEN543,Wortwell,THE PACKWAY,"THE PACKWAY, Wortwell",1.3420227490803602,52.414203424373774,2017-10-27,Friday,1,14:50,15:15,
Norfolk,CEN546,Drayton,HURN ROAD,"HURN ROAD, Drayton",1.240220733708949,52.6697295052976,2017-11-03,Friday,1,09:45,10:10,
Norfolk,CEN546,Drayton,HERBERT NURSEY CLOSE,"HERBERT NURSEY CLOSE, Drayton",1.2386691223821582,52.67155269921399,2017-11-03,Friday,1,10:15,10:30,
Norfolk,CEN546,Drayton,CARTER ROAD,"CARTER ROAD, Drayton",1.2309575549407812,52.675513718491814,2017-11-03,Friday,1,10:35,11:00,
Norfolk,CEN546,Drayton,MOBILE HOMES,"MOBILE HOMES, Drayton",1.2367340866122454,52.67599450902107,2017-11-03,Friday,1,11:05,11:25,
Norfolk,CEN546,Drayton,HIGHFIELD ROAD,"HIGHFIELD ROAD, Drayton",1.2208253662706905,52.68299362244166,2017-11-03,Friday,1,11:30,12:00,
Norfolk,CEN546,Drayton,ORCHARD BANK,"ORCHARD BANK, Drayton",1.2156448363315968,52.67513011426998,2017-11-03,Friday,1,12:10,12:20,
Norfolk,CEN546,Taverham,SETON ROAD,"SETON ROAD, Taverham",1.212782704562566,52.68128746690986,2017-11-03,Friday,1,13:40,13:50,
Norfolk,CEN546,Drayton,DRAYTON GROVE,"DRAYTON GROVE, Drayton",1.2196483052562186,52.67866373587949,2017-11-03,Friday,1,13:55,14:10,
Norfolk,CEN546,Drayton,VILLAGE HALL,"VILLAGE HALL, Drayton",1.2236293751979257,52.67686462801884,2017-11-03,Friday,1,14:15,14:55,
Norfolk,CEN546,Drayton,FAIRVIEW CLOSE (LOW ROAD),"FAIRVIEW CLOSE (LOW ROAD), Drayton",1.2250741926819209,52.67398330381752,2017-11-03,Friday,1,15:00,15:20,
Norfolk,CEN548,North burlingham,POST BOX,"POST BOX, North burlingham",1.4952196150934765,52.63632039019033,2017-11-03,Friday,1,09:40,09:55,
Norfolk,CEN548,South walsham,HILL FARM,"HILL FARM, South walsham",1.478489168261063,52.66281572140303,2017-11-03,Friday,1,10:05,10:20,
Norfolk,CEN548,South walsham,KINGS ARMS PUB,"KINGS ARMS PUB, South walsham",1.4918078586975965,52.66361984228103,2017-11-03,Friday,1,10:25,10:55,
Norfolk,CEN548,Ranworth,PRIORY RD/NORTON HILL JUNCTION,"PRIORY RD/NORTON HILL JUNCTION, Ranworth",1.4889857482234878,52.673866574772454,2017-11-03,Friday,1,11:05,11:35,
Norfolk,CEN548,Upton,CARGATE LANE,"CARGATE LANE, Upton",1.538814195208818,52.658410289979535,2017-11-03,Friday,1,12:15,12:30,
Norfolk,CEN548,Upton,RIVERVIEW DRIVE,"RIVERVIEW DRIVE, Upton",1.5459624877742209,52.659005859231684,2017-11-03,Friday,1,13:40,13:55,
Norfolk,CEN548,Upton,OLD POST OFFICE,"OLD POST OFFICE, Upton",1.5417699659487574,52.65764730339842,2017-11-03,Friday,1,14:00,14:10,
Norfolk,CEN548,Upton,SOUTHEND COUNCIL HOUSES,"SOUTHEND COUNCIL HOUSES, Upton",1.5317083492717358,52.65045561320398,2017-11-03,Friday,1,14:15,14:25,
Norfolk,CEN548,Blofield cnr & heath,CUTTONS CORNER,"CUTTONS CORNER, Blofield cnr & heath",1.4549641525471777,52.650768876382394,2017-11-03,Friday,1,14:40,14:50,
Norfolk,CEN548,Blofield cnr & heath,ALLENS CLOSE,"ALLENS CLOSE, Blofield cnr & heath",1.4449766931768457,52.651644597939764,2017-11-03,Friday,1,14:55,15:40,
Norfolk,DER122,Middleton,OAKDALE/VILLAGE HALL,"OAKDALE/VILLAGE HALL, Middleton",0.45970692125284773,52.71407453016195,2017-10-23,Monday,1,09:40,10:05,
Norfolk,DER122,Fair green,PARK HILL EST,"PARK HILL EST, Fair green",0.44830046285872754,52.72323075071335,2017-10-23,Monday,1,10:10,10:30,
Norfolk,DER122,Fair green,GRAHAM DRIVE,"GRAHAM DRIVE, Fair green",0.4509807313987985,52.72428136445318,2017-10-23,Monday,1,10:35,10:50,
Norfolk,DER122,Fair green,THE GATE INN,"THE GATE INN, Fair green",0.45435253751763044,52.72498489768519,2017-10-23,Monday,1,10:55,11:10,
Norfolk,DER122,Middleton,42 HALL ORCHARDS,"42 HALL ORCHARDS, Middleton",0.4588401189943735,52.718669436899475,2017-10-23,Monday,1,11:15,11:25,
Norfolk,DER122,Middleton,88 WALTER HOWES CRESCENT,"88 WALTER HOWES CRESCENT, Middleton",0.46196607396785183,52.71869446089867,2017-10-23,Monday,1,11:30,11:45,
Norfolk,DER122,Middleton,ST MARYS CRESCENT,"ST MARYS CRESCENT, Middleton",0.46053425314667745,52.717986853452565,2017-10-23,Monday,1,11:50,12:00,
Norfolk,DER122,Leziate,HOLT HOUSE LANE,"HOLT HOUSE LANE, Leziate",0.47998577317571417,52.74057396669913,2017-10-23,Monday,1,12:10,12:30,
Norfolk,DER122,Ashwicken,GARDEN ROW,"GARDEN ROW, Ashwicken",0.5029224801443057,52.738797025082036,2017-10-23,Monday,1,12:35,12:50,
Norfolk,DER122,Ashwicken,GLOSTHORPE MANOR,"GLOSTHORPE MANOR, Ashwicken",0.5090162565772959,52.73526920165106,2017-10-23,Monday,1,12:55,13:10,
Norfolk,DER122,East winch,GAYTON ROAD (Opp Windyridge),"GAYTON ROAD (Opp Windyridge), East winch",0.5044210258306275,52.719459443664185,2017-10-23,Monday,1,14:20,14:30,
Norfolk,DER122,East winch,TOWN CLOSE,"TOWN CLOSE, East winch",0.507513220589729,52.72095867824764,2017-10-23,Monday,1,14:35,14:45,
Norfolk,DER122,East winch,VILLAGE SIGN,"VILLAGE SIGN, East winch",0.5126277481177097,52.71847644717519,2017-10-23,Monday,1,15:05,15:15,
Norfolk,DER122,Blackborough end,BLACKBOROUGH GREEN,"BLACKBOROUGH GREEN, Blackborough end",0.46340250724099896,52.70608481043214,2017-10-23,Monday,1,15:20,15:30,
Norfolk,DER122,Blackborough end,THE FIRS,"THE FIRS, Blackborough end",0.4632357458472338,52.704964276569875,2017-10-23,Monday,1,15:35,16:00,
Norfolk,DER124,Pott row,CHEQUERS ROAD,"CHEQUERS ROAD, Pott row",0.5241767003679363,52.77482707838351,2017-10-16,Monday,1,09:50,10:00,
Norfolk,DER124,Pott row,19 CHEQUERS CLOSE,"19 CHEQUERS CLOSE, Pott row",0.5231883747839123,52.77517182637346,2017-10-16,Monday,1,10:05,10:20,
Norfolk,DER124,Pott row,17 THE GROVE,"17 THE GROVE, Pott row",0.5229888425288162,52.77377331579321,2017-10-16,Monday,1,10:25,10:40,
Norfolk,DER124,Pott row,13 HILLINGS WAY,"13 HILLINGS WAY, Pott row",0.5241690671178267,52.77034021691795,2017-10-16,Monday,1,10:45,10:55,
Norfolk,DER124,Pott row,POST BOX,"POST BOX, Pott row",0.5226475093458606,52.76992299685482,2017-10-16,Monday,1,11:00,11:10,
Norfolk,DER124,Pott row,18 VONG LANE,"18 VONG LANE, Pott row",0.5274857566548989,52.767706831977485,2017-10-16,Monday,1,11:15,11:30,
Norfolk,DER124,Pott row,POLICE HOUSE,"POLICE HOUSE, Pott row",0.5262844630798617,52.76590704867641,2017-10-16,Monday,1,11:35,11:50,
Norfolk,DER124,Pott row,BARLOWES GARAGE,"BARLOWES GARAGE, Pott row",0.5213013724847753,52.76330651602198,2017-10-16,Monday,1,11:55,12:10,
Norfolk,DER124,Grimston,LOW ROAD 1,"LOW ROAD 1, Grimston",0.5457876246574194,52.77494954939846,2017-10-16,Monday,1,13:20,13:35,
Norfolk,DER124,Grimston,WESLYAN CHAPEL,"WESLYAN CHAPEL, Grimston",0.5426784455860785,52.77375737317684,2017-10-16,Monday,1,13:40,13:55,
Norfolk,DER124,Grimston,CLOCK TOWER,"CLOCK TOWER, Grimston",0.5480095075803295,52.7726268300664,2017-10-16,Monday,1,14:10,14:30,
Norfolk,DER124,Grimston,22 GAYTON ROAD,"22 GAYTON ROAD, Grimston",0.549251018820559,52.770783744196855,2017-10-16,Monday,1,14:35,14:50,
Norfolk,DER124,Grimston,CHURCH & SCHOOL,"CHURCH & SCHOOL, Grimston",0.5504817010300903,52.76672882378619,2017-10-16,Monday,1,14:55,15:05,
Norfolk,DER124,Pott row,HOLLY MEADOWS SCHOOL,"HOLLY MEADOWS SCHOOL, Pott row",0.5312920266909945,52.76840794146052,2017-10-16,Monday,1,15:10,15:40,
Norfolk,DER124,Grimston,CHURCH CLOSE,"CHURCH CLOSE, Grimston",0.5443987920031712,52.76715625716477,2017-10-16,Monday,1,15:45,16:05,
Norfolk,DER124,Dersingham,HANOVER COURT,"HANOVER COURT, Dersingham",0.5225182577981115,52.84045890640521,2017-10-16,Monday,1,16:25,16:55,
Norfolk,DER240,Pentney,BACK RD,"BACK RD, Pentney",0.5491777980379802,52.6954223028168,2017-10-17,Tuesday,1,10:05,10:25,
Norfolk,DER240,Pentney,NARBOROUGH ROAD - COUNCIL HOUSES,"NARBOROUGH ROAD - COUNCIL HOUSES, Pentney",0.5512196392816823,52.69464998803362,2017-10-17,Tuesday,1,10:30,10:40,
Norfolk,DER240,Narborough,SCHOOL DENNYS WALK,"SCHOOL DENNYS WALK, Narborough",0.5853019250499256,52.68357910127066,2017-10-17,Tuesday,1,10:50,11:10,
Norfolk,DER240,Narborough,OLD VICARAGE PARK,"OLD VICARAGE PARK, Narborough",0.5819354354210794,52.6844528305177,2017-10-17,Tuesday,1,11:15,11:35,
Norfolk,DER240,Narborough,EASTFIELDS,"EASTFIELDS, Narborough",0.5895845836294772,52.68168711005537,2017-10-17,Tuesday,1,11:40,11:55,
Norfolk,DER240,Narborough,WESTFIELDS,"WESTFIELDS, Narborough",0.5858633367076959,52.68156157491841,2017-10-17,Tuesday,1,12:00,12:15,
Norfolk,DER240,Marham base,OAK AVENUE (PLAY AREA),"OAK AVENUE (PLAY AREA), Marham base",0.5469978785873706,52.656964615200025,2017-10-17,Tuesday,1,13:25,13:50,
Norfolk,DER240,"Marham, aston down","ASTON DOWN, THE STREET","ASTON DOWN, THE STREET, Marham, aston down",0.5436489897214843,52.66677514194338,2017-10-17,Tuesday,1,14:00,14:10,
Norfolk,DER240,Marham,HILLSIDE,"HILLSIDE, Marham",0.5305463043667898,52.6624607872537,2017-10-17,Tuesday,1,14:15,14:30,
Norfolk,DER240,Marham,VILLEBOIS,"VILLEBOIS, Marham",0.5265894373669314,52.66078279200132,2017-10-17,Tuesday,1,14:35,14:50,
Norfolk,DER240,Marham,VILLAGE HALL (MARHAM),"VILLAGE HALL (MARHAM), Marham",0.5256838236871774,52.658670961361196,2017-10-17,Tuesday,1,14:55,15:10,
Norfolk,DER240,Shouldham,THE GREEN,"THE GREEN, Shouldham",0.4782198105658126,52.65145479673645,2017-10-17,Tuesday,1,15:20,15:35,
Norfolk,DER240,Shouldham,WOODWARD CLOSE,"WOODWARD CLOSE, Shouldham",0.4783234703521864,52.653287015779554,2017-10-17,Tuesday,1,15:40,15:55,
Norfolk,DER240,Shouldham,HALLFIELDS,"HALLFIELDS, Shouldham",0.47890227315866823,52.65541502145497,2017-10-17,Tuesday,1,16:00,16:15,
Norfolk,DER240,Shouldham,RYES CLOSE,"RYES CLOSE, Shouldham",0.47280130802955367,52.6500214127934,2017-10-17,Tuesday,1,16:20,16:30,
Norfolk,DER243,Barton bendish,HATHERLEY GARDENS,"HATHERLEY GARDENS, Barton bendish",0.5287431460432451,52.62251997362671,2017-10-24,Tuesday,1,09:55,10:05,
Norfolk,DER243,Beachamwell,OLD POST OFFICE,"OLD POST OFFICE, Beachamwell",0.5839909201249223,52.618008930266114,2017-10-24,Tuesday,1,10:15,10:35,
Norfolk,DER243,Drymere,TELEPHONE KIOSK,"TELEPHONE KIOSK, Drymere",0.6320659030369482,52.62560957581095,2017-10-24,Tuesday,1,10:40,10:50,
Norfolk,DER243,Cockley cley,PINE AVENUE,"PINE AVENUE, Cockley cley",0.6436026147478757,52.60788921158707,2017-10-24,Tuesday,1,10:55,11:05,
Norfolk,DER243,Cockley cley,RIVERSIDE,"RIVERSIDE, Cockley cley",0.6469774732282659,52.60555668653351,2017-10-24,Tuesday,1,11:10,11:25,
Norfolk,DER243,Hillborough,THE SWAN PUBLIC HOUSE,"THE SWAN PUBLIC HOUSE, Hillborough",0.6968480046180334,52.57270516338549,2017-10-24,Tuesday,1,11:35,11:45,
Norfolk,DER243,Hillborough,WESTGATE STREET (No.12),"WESTGATE STREET (No.12), Hillborough",0.6828902986382935,52.57036962962576,2017-10-24,Tuesday,1,11:50,12:00,
Norfolk,DER243,Foulden,WHITE HART PUB CAR PARK,"WHITE HART PUB CAR PARK, Foulden",0.6097360357302197,52.56324693811625,2017-10-24,Tuesday,1,12:10,12:20,
Norfolk,DER243,Gooderstone,WALNUT PLACE,"WALNUT PLACE, Gooderstone",0.5993754133307249,52.58815916057872,2017-10-24,Tuesday,1,13:30,13:50,
Norfolk,DER243,Oxborough,ST JOHN'S CLOSE,"ST JOHN'S CLOSE, Oxborough",0.5719402469715756,52.58483784773764,2017-10-24,Tuesday,1,14:00,14:10,
Norfolk,DER243,Boughton,MILL ROAD,"MILL ROAD, Boughton",0.5052728240527051,52.58955892617522,2017-10-24,Tuesday,1,14:20,14:35,
Norfolk,DER243,Fincham,METHODIST CHURCH,"METHODIST CHURCH, Fincham",0.479221437540561,52.624997012044254,2017-10-24,Tuesday,1,14:45,14:55,
Norfolk,DER243,Fincham,VICARAGE LAY-BY,"VICARAGE LAY-BY, Fincham",0.4896631914799907,52.62880640099756,2017-10-24,Tuesday,1,15:00,15:15,
Norfolk,DER243,Fincham,CHURCHILL CRESCENT,"CHURCHILL CRESCENT, Fincham",0.4933726980333729,52.6316687810957,2017-10-24,Tuesday,1,15:20,15:35,
Norfolk,DER243,Shouldham thorpe,TELEPHONE BOX,"TELEPHONE BOX, Shouldham thorpe",0.4549778325172296,52.64302770610362,2017-10-24,Tuesday,1,15:40,16:00,
Norfolk,DER246,Clenchwarton,CORONATION ROAD,"CORONATION ROAD, Clenchwarton",0.3739230165753521,52.75587342140997,2017-11-07,Tuesday,1,09:40,09:55,
Norfolk,DER246,Clenchwarton,MARGARETTA CLOSE,"MARGARETTA CLOSE, Clenchwarton",0.36552770497585213,52.758208234756395,2017-11-07,Tuesday,1,10:00,10:15,
Norfolk,DER246,Clenchwarton,ROOKERY CLOSE,"ROOKERY CLOSE, Clenchwarton",0.35817959780676367,52.75525245444038,2017-11-07,Tuesday,1,10:20,10:35,
Norfolk,DER246,Clenchwarton,RECTORY DRIVE,"RECTORY DRIVE, Clenchwarton",0.3557494263859243,52.756083047169774,2017-11-07,Tuesday,1,10:40,10:50,
Norfolk,DER246,Clenchwarton,ST ANNES CRESCENT,"ST ANNES CRESCENT, Clenchwarton",0.3529185311067722,52.76212776084317,2017-11-07,Tuesday,1,10:55,11:10,
Norfolk,DER246,Clenchwarton,LINFORD ESTATE [1],"LINFORD ESTATE [1], Clenchwarton",0.35611307781351426,52.763916624520164,2017-11-07,Tuesday,1,11:15,11:30,
Norfolk,DER246,Clenchwarton,HALL ROAD TELEPHONE BOX,"HALL ROAD TELEPHONE BOX, Clenchwarton",0.35449050402520055,52.75912028934972,2017-11-07,Tuesday,1,11:35,11:50,
Norfolk,DER246,Clenchwarton,BLACK HORSE ROAD,"BLACK HORSE ROAD, Clenchwarton",0.351679181211358,52.757009072612476,2017-11-07,Tuesday,1,13:00,13:20,
Norfolk,DER246,Clenchwarton,WILDFIELDS CLOSE,"WILDFIELDS CLOSE, Clenchwarton",0.3487891505912599,52.75756090527384,2017-11-07,Tuesday,1,13:25,13:35,
Norfolk,DER246,Clenchwarton,36 STATION ROAD,"36 STATION ROAD, Clenchwarton",0.33638949778008875,52.75434408065968,2017-11-07,Tuesday,1,13:40,14:05,
Norfolk,DER246,Clenchwarton,POPPYFIELDS Nr No 23,"POPPYFIELDS Nr No 23, Clenchwarton",0.37949075297692947,52.74926074141557,2017-11-07,Tuesday,1,14:15,14:40,
Norfolk,DER246,West lynn,ST PETERS ROAD [1 ],"ST PETERS ROAD [1 ], West lynn",0.38501761415697006,52.75006684863213,2017-11-07,Tuesday,1,14:45,15:10,
Norfolk,DER246,West lynn,ST PETERS CLOSE/CEDAR WAY,"ST PETERS CLOSE/CEDAR WAY, West lynn",0.38477423864304044,52.75212187675117,2017-11-07,Tuesday,1,15:15,15:30,
Norfolk,DER246,West lynn,ST PETERS ROAD/HARROW CLOSE,"ST PETERS ROAD/HARROW CLOSE, West lynn",0.3865238914042464,52.75620491737829,2017-11-07,Tuesday,1,15:35,15:45,
Norfolk,DER246,West lynn,19 FERRY ROAD,"19 FERRY ROAD, West lynn",0.38424963379685984,52.757167837053416,2017-11-07,Tuesday,1,15:50,16:15,
Norfolk,DER247,West winch,FREEBRIDGE HAVEN,"FREEBRIDGE HAVEN, West winch",0.41903222135517254,52.71967746935952,2017-10-31,Tuesday,1,09:40,10:10,
Norfolk,DER247,North runcton,THE GREEN,"THE GREEN, North runcton",0.43469782164679494,52.71486071826721,2017-10-31,Tuesday,1,10:15,10:35,
Norfolk,DER247,North runcton,THE FOLDGATE,"THE FOLDGATE, North runcton",0.42924998029478667,52.713282029498835,2017-10-31,Tuesday,1,10:40,10:55,
Norfolk,DER247,Setchey,WILLOW LANE,"WILLOW LANE, Setchey",0.41825989131270114,52.70116987999458,2017-10-31,Tuesday,1,11:05,11:15,
Norfolk,DER247,West winch,WESTLAND CHASE,"WESTLAND CHASE, West winch",0.4155144454933884,52.70586570807724,2017-10-31,Tuesday,1,11:20,11:35,
Norfolk,DER247,West winch,MAFEKING TERRACE,"MAFEKING TERRACE, West winch",0.4154700013587881,52.71095603810463,2017-10-31,Tuesday,1,11:40,11:50,
Norfolk,DER247,West winch,LONG LANE,"LONG LANE, West winch",0.4120264881285325,52.712141170752936,2017-10-31,Tuesday,1,11:55,12:05,
